[{"id":3901,"name":"Badakhshan","country_id":1,"country_code":"AF","iso2":"BDS","iso3166_2":"AF-BDS","latitude":"36.80402540","longitude":"71.36765800"},{"id":3871,"name":"Badghis","country_id":1,"country_code":"AF","iso2":"BDG","iso3166_2":"AF-BDG","latitude":"35.00000000","longitude":"63.75000000"},{"id":3875,"name":"Baghlan","country_id":1,"country_code":"AF","iso2":"BGL","iso3166_2":"AF-BGL","latitude":"36.17890260","longitude":"68.74530640"},{"id":3884,"name":"Balkh","country_id":1,"country_code":"AF","iso2":"BAL","iso3166_2":"AF-BAL","latitude":"36.75506030","longitude":"66.89753720"},{"id":3872,"name":"Bamyan","country_id":1,"country_code":"AF","iso2":"BAM","iso3166_2":"AF-BAM","latitude":"34.79463100","longitude":"67.68433400"},{"id":3892,"name":"Daykundi","country_id":1,"country_code":"AF","iso2":"DAY","iso3166_2":"AF-DAY","latitude":"33.72511300","longitude":"66.21965540"},{"id":3899,"name":"Farah","country_id":1,"country_code":"AF","iso2":"FRA","iso3166_2":"AF-FRA","latitude":"32.37409070","longitude":"62.11462660"},{"id":3889,"name":"Faryab","country_id":1,"country_code":"AF","iso2":"FYB","iso3166_2":"AF-FYB","latitude":"35.92617840","longitude":"64.62377580"},{"id":3870,"name":"Ghazni","country_id":1,"country_code":"AF","iso2":"GHA","iso3166_2":"AF-GHA","latitude":"33.54505870","longitude":"68.41739720"},{"id":3888,"name":"Ghōr","country_id":1,"country_code":"AF","iso2":"GHO","iso3166_2":"AF-GHO","latitude":"34.16052570","longitude":"64.92019490"},{"id":3873,"name":"Helmand","country_id":1,"country_code":"AF","iso2":"HEL","iso3166_2":"AF-HEL","latitude":"31.00000000","longitude":"64.00000000"},{"id":3887,"name":"Herat","country_id":1,"country_code":"AF","iso2":"HER","iso3166_2":"AF-HER","latitude":"34.34914430","longitude":"62.21632520"},{"id":3886,"name":"Jowzjan","country_id":1,"country_code":"AF","iso2":"JOW","iso3166_2":"AF-JOW","latitude":"36.96657060","longitude":"65.95602320"},{"id":3902,"name":"Kabul","country_id":1,"country_code":"AF","iso2":"KAB","iso3166_2":"AF-KAB","latitude":"34.52664310","longitude":"69.18490820"},{"id":3890,"name":"Kandahar","country_id":1,"country_code":"AF","iso2":"KAN","iso3166_2":"AF-KAN","latitude":"31.62057380","longitude":"65.71575730"},{"id":3879,"name":"Kapisa","country_id":1,"country_code":"AF","iso2":"KAP","iso3166_2":"AF-KAP","latitude":"34.90555600","longitude":"69.74166700"},{"id":3878,"name":"Khost","country_id":1,"country_code":"AF","iso2":"KHO","iso3166_2":"AF-KHO","latitude":"33.33914020","longitude":"69.92063590"},{"id":3876,"name":"Kunar","country_id":1,"country_code":"AF","iso2":"KNR","iso3166_2":"AF-KNR","latitude":"34.95000000","longitude":"71.13333300"},{"id":3900,"name":"Kunduz Province","country_id":1,"country_code":"AF","iso2":"KDZ","iso3166_2":"AF-KDZ","latitude":"36.87071870","longitude":"68.75635280"},{"id":3891,"name":"Laghman","country_id":1,"country_code":"AF","iso2":"LAG","iso3166_2":"AF-LAG","latitude":"34.78333300","longitude":"70.18333300"},{"id":3897,"name":"Logar","country_id":1,"country_code":"AF","iso2":"LOG","iso3166_2":"AF-LOG","latitude":"34.06535950","longitude":"69.16017200"},{"id":3882,"name":"Nangarhar","country_id":1,"country_code":"AF","iso2":"NAN","iso3166_2":"AF-NAN","latitude":"34.22038900","longitude":"70.38003140"},{"id":3896,"name":"Nimruz","country_id":1,"country_code":"AF","iso2":"NIM","iso3166_2":"AF-NIM","latitude":"30.77538110","longitude":"62.47930880"},{"id":3880,"name":"Nuristan","country_id":1,"country_code":"AF","iso2":"NUR","iso3166_2":"AF-NUR","latitude":"35.30000000","longitude":"70.83333300"},{"id":3894,"name":"Paktia","country_id":1,"country_code":"AF","iso2":"PIA","iso3166_2":"AF-PIA","latitude":"33.70572400","longitude":"69.40835550"},{"id":3877,"name":"Paktika","country_id":1,"country_code":"AF","iso2":"PKA","iso3166_2":"AF-PKA","latitude":"32.39362310","longitude":"68.70365140"},{"id":3881,"name":"Panjshir","country_id":1,"country_code":"AF","iso2":"PAN","iso3166_2":"AF-PAN","latitude":"35.69735560","longitude":"70.09996040"},{"id":3895,"name":"Parwan","country_id":1,"country_code":"AF","iso2":"PAR","iso3166_2":"AF-PAR","latitude":"34.97970140","longitude":"68.91467030"},{"id":3883,"name":"Samangan","country_id":1,"country_code":"AF","iso2":"SAM","iso3166_2":"AF-SAM","latitude":"36.26749380","longitude":"68.02153740"},{"id":3885,"name":"Sar-e Pol","country_id":1,"country_code":"AF","iso2":"SAR","iso3166_2":"AF-SAR","latitude":"36.21662800","longitude":"65.93336000"},{"id":3893,"name":"Takhar","country_id":1,"country_code":"AF","iso2":"TAK","iso3166_2":"AF-TAK","latitude":"36.59407320","longitude":"69.79389960"},{"id":3898,"name":"Urozgan","country_id":1,"country_code":"AF","iso2":"URU","iso3166_2":"AF-URU","latitude":"32.81296810","longitude":"66.01831850"},{"id":5468,"name":"Wardak","country_id":1,"country_code":"AF","iso2":"WAR","iso3166_2":"AF-WAR","latitude":"34.30000000","longitude":"68.50000000"},{"id":3874,"name":"Zabul","country_id":1,"country_code":"AF","iso2":"ZAB","iso3166_2":"AF-ZAB","latitude":"32.30689420","longitude":"67.12990400"},{"id":5298,"name":"Brändö","country_id":2,"country_code":"AX","iso2":"12","iso3166_2":"AX-12","latitude":"60.41358730","longitude":"21.04404980"},{"id":5294,"name":"Eckerö","country_id":2,"country_code":"AX","iso2":"08","iso3166_2":"AX-08","latitude":"60.22318140","longitude":"19.53893790"},{"id":5289,"name":"Finström","country_id":2,"country_code":"AX","iso2":"03","iso3166_2":"AX-03","latitude":"60.23105190","longitude":"19.98672590"},{"id":5295,"name":"Föglö","country_id":2,"country_code":"AX","iso2":"09","iso3166_2":"AX-09","latitude":"60.01073250","longitude":"20.42469970"},{"id":5296,"name":"Geta","country_id":2,"country_code":"AX","iso2":"10","iso3166_2":"AX-10","latitude":"60.37401570","longitude":"19.84981280"},{"id":5292,"name":"Hammarland","country_id":2,"country_code":"AX","iso2":"06","iso3166_2":"AX-06","latitude":"60.21967580","longitude":"19.73784810"},{"id":5288,"name":"Jomala","country_id":2,"country_code":"AX","iso2":"02","iso3166_2":"AX-02","latitude":"60.15229470","longitude":"19.94891440"},{"id":5301,"name":"Kökar","country_id":2,"country_code":"AX","iso2":"15","iso3166_2":"AX-15","latitude":"59.92117090","longitude":"20.91035140"},{"id":5300,"name":"Kumlinge","country_id":2,"country_code":"AX","iso2":"14","iso3166_2":"AX-14","latitude":"60.25876930","longitude":"20.77822920"},{"id":5290,"name":"Lemland","country_id":2,"country_code":"AX","iso2":"04","iso3166_2":"AX-04","latitude":"60.06901690","longitude":"20.08600810"},{"id":5299,"name":"Lumparland","country_id":2,"country_code":"AX","iso2":"13","iso3166_2":"AX-13","latitude":"60.11683850","longitude":"20.26105830"},{"id":5287,"name":"Mariehamn","country_id":2,"country_code":"AX","iso2":"01","iso3166_2":"AX-01","latitude":"60.10242300","longitude":"19.94126000"},{"id":5291,"name":"Saltvik","country_id":2,"country_code":"AX","iso2":"05","iso3166_2":"AX-05","latitude":"60.27557560","longitude":"20.06120650"},{"id":5302,"name":"Sottunga","country_id":2,"country_code":"AX","iso2":"16","iso3166_2":"AX-16","latitude":"60.13079770","longitude":"20.64598210"},{"id":5293,"name":"Sund","country_id":2,"country_code":"AX","iso2":"07","iso3166_2":"AX-07","latitude":"60.25303320","longitude":"20.11986370"},{"id":5297,"name":"Vårdö","country_id":2,"country_code":"AX","iso2":"11","iso3166_2":"AX-11","latitude":"60.24216920","longitude":"20.37442610"},{"id":603,"name":"Berat","country_id":3,"country_code":"AL","iso2":"01","iso3166_2":"AL-01","latitude":"40.70186360","longitude":"19.95807580"},{"id":610,"name":"Dibër","country_id":3,"country_code":"AL","iso2":"09","iso3166_2":"AL-09","latitude":"41.62219200","longitude":"20.18081600"},{"id":632,"name":"Durrës","country_id":3,"country_code":"AL","iso2":"02","iso3166_2":"AL-02","latitude":"41.42798630","longitude":"19.53733720"},{"id":598,"name":"Elbasan","country_id":3,"country_code":"AL","iso2":"03","iso3166_2":"AL-03","latitude":"41.05108290","longitude":"20.13985260"},{"id":631,"name":"Fier","country_id":3,"country_code":"AL","iso2":"04","iso3166_2":"AL-04","latitude":"40.91913920","longitude":"19.66393090"},{"id":604,"name":"Gjirokastër","country_id":3,"country_code":"AL","iso2":"05","iso3166_2":"AL-05","latitude":"40.07708710","longitude":"20.13933590"},{"id":630,"name":"Korçë","country_id":3,"country_code":"AL","iso2":"06","iso3166_2":"AL-06","latitude":"40.58587530","longitude":"20.73613150"},{"id":601,"name":"Kukës","country_id":3,"country_code":"AL","iso2":"07","iso3166_2":"AL-07","latitude":"42.18856640","longitude":"20.37696330"},{"id":609,"name":"Lezhë","country_id":3,"country_code":"AL","iso2":"08","iso3166_2":"AL-08","latitude":"41.78137590","longitude":"19.80679160"},{"id":611,"name":"Shkodër","country_id":3,"country_code":"AL","iso2":"10","iso3166_2":"AL-10","latitude":"42.25076770","longitude":"19.59597230"},{"id":615,"name":"Tirana","country_id":3,"country_code":"AL","iso2":"11","iso3166_2":"AL-11","latitude":"41.25844780","longitude":"19.83026560"},{"id":634,"name":"Vlorë","country_id":3,"country_code":"AL","iso2":"12","iso3166_2":"AL-12","latitude":"40.15009600","longitude":"19.80679160"},{"id":1118,"name":"Adrar","country_id":4,"country_code":"DZ","iso2":"01","iso3166_2":"DZ-01","latitude":"26.48881550","longitude":"-1.35824420"},{"id":1119,"name":"Aïn Defla","country_id":4,"country_code":"DZ","iso2":"44","iso3166_2":"DZ-44","latitude":"36.26571780","longitude":"1.97013470"},{"id":1122,"name":"Aïn Témouchent","country_id":4,"country_code":"DZ","iso2":"46","iso3166_2":"DZ-46","latitude":"35.29926980","longitude":"-1.13927920"},{"id":1144,"name":"Algiers","country_id":4,"country_code":"DZ","iso2":"16","iso3166_2":"DZ-16","latitude":"36.70005090","longitude":"3.02912660"},{"id":1103,"name":"Annaba","country_id":4,"country_code":"DZ","iso2":"23","iso3166_2":"DZ-23","latitude":"36.84384480","longitude":"7.59817380"},{"id":1142,"name":"Batna","country_id":4,"country_code":"DZ","iso2":"05","iso3166_2":"DZ-05","latitude":"35.54923460","longitude":"6.11603820"},{"id":1108,"name":"Béchar","country_id":4,"country_code":"DZ","iso2":"08","iso3166_2":"DZ-08","latitude":"31.62380980","longitude":"-2.21624430"},{"id":1128,"name":"Béjaïa","country_id":4,"country_code":"DZ","iso2":"06","iso3166_2":"DZ-06","latitude":"36.75152580","longitude":"5.05568370"},{"id":4909,"name":"Béni Abbès","country_id":4,"country_code":"DZ","iso2":"53","iso3166_2":"DZ-53","latitude":"30.10892100","longitude":"-2.46225480"},{"id":1114,"name":"Biskra","country_id":4,"country_code":"DZ","iso2":"07","iso3166_2":"DZ-07","latitude":"34.84494370","longitude":"5.72485670"},{"id":1111,"name":"Blida","country_id":4,"country_code":"DZ","iso2":"09","iso3166_2":"DZ-09","latitude":"36.50125950","longitude":"2.95176660"},{"id":4908,"name":"Bordj Baji Mokhtar","country_id":4,"country_code":"DZ","iso2":"52","iso3166_2":"DZ-52","latitude":"22.62614610","longitude":"0.12758170"},{"id":1116,"name":"Bordj Bou Arréridj","country_id":4,"country_code":"DZ","iso2":"34","iso3166_2":"DZ-34","latitude":"36.07399250","longitude":"4.76302710"},{"id":1104,"name":"Bouïra","country_id":4,"country_code":"DZ","iso2":"10","iso3166_2":"DZ-10","latitude":"36.36918460","longitude":"3.90061940"},{"id":1125,"name":"Boumerdès","country_id":4,"country_code":"DZ","iso2":"35","iso3166_2":"DZ-35","latitude":"36.73580320","longitude":"3.61630460"},{"id":1105,"name":"Chlef","country_id":4,"country_code":"DZ","iso2":"02","iso3166_2":"DZ-02","latitude":"36.16459200","longitude":"1.33149900"},{"id":1121,"name":"Constantine","country_id":4,"country_code":"DZ","iso2":"25","iso3166_2":"DZ-25","latitude":"36.35841650","longitude":"6.66716740"},{"id":4912,"name":"Djanet","country_id":4,"country_code":"DZ","iso2":"56","iso3166_2":"DZ-56","latitude":"24.07152100","longitude":"9.61558470"},{"id":1098,"name":"Djelfa","country_id":4,"country_code":"DZ","iso2":"17","iso3166_2":"DZ-17","latitude":"34.67039560","longitude":"3.25037610"},{"id":1129,"name":"El Bayadh","country_id":4,"country_code":"DZ","iso2":"32","iso3166_2":"DZ-32","latitude":"32.57030300","longitude":"1.12595810"},{"id":4905,"name":"El M'ghair","country_id":4,"country_code":"DZ","iso2":"49","iso3166_2":"DZ-49","latitude":"33.95807000","longitude":"5.70112620"},{"id":4906,"name":"El Menia","country_id":4,"country_code":"DZ","iso2":"50","iso3166_2":"DZ-50","latitude":"30.70718850","longitude":"3.04806250"},{"id":1099,"name":"El Oued","country_id":4,"country_code":"DZ","iso2":"39","iso3166_2":"DZ-39","latitude":"33.36115310","longitude":"6.86066930"},{"id":1100,"name":"El Tarf","country_id":4,"country_code":"DZ","iso2":"36","iso3166_2":"DZ-36","latitude":"36.76671860","longitude":"8.31694180"},{"id":1127,"name":"Ghardaïa","country_id":4,"country_code":"DZ","iso2":"47","iso3166_2":"DZ-47","latitude":"32.48585500","longitude":"3.67710400"},{"id":1137,"name":"Guelma","country_id":4,"country_code":"DZ","iso2":"24","iso3166_2":"DZ-24","latitude":"36.46274440","longitude":"7.43308330"},{"id":1112,"name":"Illizi","country_id":4,"country_code":"DZ","iso2":"33","iso3166_2":"DZ-33","latitude":"26.50419100","longitude":"8.47992600"},{"id":4914,"name":"In Guezzam","country_id":4,"country_code":"DZ","iso2":"58","iso3166_2":"DZ-58","latitude":"20.42753000","longitude":"4.67663100"},{"id":4913,"name":"In Salah","country_id":4,"country_code":"DZ","iso2":"57","iso3166_2":"DZ-57","latitude":"27.19503310","longitude":"2.48261320"},{"id":1113,"name":"Jijel","country_id":4,"country_code":"DZ","iso2":"18","iso3166_2":"DZ-18","latitude":"36.72921880","longitude":"5.96077760"},{"id":1126,"name":"Khenchela","country_id":4,"country_code":"DZ","iso2":"40","iso3166_2":"DZ-40","latitude":"35.42694040","longitude":"7.14601550"},{"id":1138,"name":"Laghouat","country_id":4,"country_code":"DZ","iso2":"03","iso3166_2":"DZ-03","latitude":"33.80634510","longitude":"2.88026350"},{"id":1134,"name":"M'Sila","country_id":4,"country_code":"DZ","iso2":"28","iso3166_2":"DZ-28","latitude":"35.70875530","longitude":"4.53715520"},{"id":1124,"name":"Mascara","country_id":4,"country_code":"DZ","iso2":"29","iso3166_2":"DZ-29","latitude":"35.39408100","longitude":"0.13795680"},{"id":1109,"name":"Médéa","country_id":4,"country_code":"DZ","iso2":"26","iso3166_2":"DZ-26","latitude":"36.26370780","longitude":"2.75878570"},{"id":1132,"name":"Mila","country_id":4,"country_code":"DZ","iso2":"43","iso3166_2":"DZ-43","latitude":"36.25021350","longitude":"6.16521630"},{"id":1140,"name":"Mostaganem","country_id":4,"country_code":"DZ","iso2":"27","iso3166_2":"DZ-27","latitude":"36.00269150","longitude":"0.36868670"},{"id":1102,"name":"Naama","country_id":4,"country_code":"DZ","iso2":"45","iso3166_2":"DZ-45","latitude":"33.26673170","longitude":"-0.31286590"},{"id":1101,"name":"Oran","country_id":4,"country_code":"DZ","iso2":"31","iso3166_2":"DZ-31","latitude":"35.62158610","longitude":"-0.70161430"},{"id":1139,"name":"Ouargla","country_id":4,"country_code":"DZ","iso2":"30","iso3166_2":"DZ-30","latitude":"31.94449980","longitude":"5.32178130"},{"id":4907,"name":"Ouled Djellal","country_id":4,"country_code":"DZ","iso2":"51","iso3166_2":"DZ-51","latitude":"34.42541030","longitude":"5.06443420"},{"id":1136,"name":"Oum El Bouaghi","country_id":4,"country_code":"DZ","iso2":"04","iso3166_2":"DZ-04","latitude":"35.86887890","longitude":"7.11082660"},{"id":1130,"name":"Relizane","country_id":4,"country_code":"DZ","iso2":"48","iso3166_2":"DZ-48","latitude":"35.73811930","longitude":"0.55476730"},{"id":1123,"name":"Saïda","country_id":4,"country_code":"DZ","iso2":"20","iso3166_2":"DZ-20","latitude":"34.83020670","longitude":"0.15026920"},{"id":1141,"name":"Sétif","country_id":4,"country_code":"DZ","iso2":"19","iso3166_2":"DZ-19","latitude":"36.18934940","longitude":"5.40468760"},{"id":4902,"name":"Sidi Bel Abbès","country_id":4,"country_code":"DZ","iso2":"22","iso3166_2":"DZ-22","latitude":"34.68226800","longitude":"-0.43575550"},{"id":1110,"name":"Skikda","country_id":4,"country_code":"DZ","iso2":"21","iso3166_2":"DZ-21","latitude":"36.75451150","longitude":"6.88562550"},{"id":1143,"name":"Souk Ahras","country_id":4,"country_code":"DZ","iso2":"41","iso3166_2":"DZ-41","latitude":"36.28286500","longitude":"7.95378960"},{"id":1135,"name":"Tamanghasset","country_id":4,"country_code":"DZ","iso2":"11","iso3166_2":"DZ-11","latitude":"22.78593720","longitude":"5.52913950"},{"id":1117,"name":"Tébessa","country_id":4,"country_code":"DZ","iso2":"12","iso3166_2":"DZ-12","latitude":"35.12494500","longitude":"7.90117350"},{"id":1106,"name":"Tiaret","country_id":4,"country_code":"DZ","iso2":"14","iso3166_2":"DZ-14","latitude":"35.37086890","longitude":"1.32178520"},{"id":4910,"name":"Timimoun","country_id":4,"country_code":"DZ","iso2":"54","iso3166_2":"DZ-54","latitude":"30.02447250","longitude":"0.84859790"},{"id":1120,"name":"Tindouf","country_id":4,"country_code":"DZ","iso2":"37","iso3166_2":"DZ-37","latitude":"27.54390700","longitude":"-6.24004110"},{"id":1115,"name":"Tipasa","country_id":4,"country_code":"DZ","iso2":"42","iso3166_2":"DZ-42","latitude":"36.52715700","longitude":"2.16720120"},{"id":1133,"name":"Tissemsilt","country_id":4,"country_code":"DZ","iso2":"38","iso3166_2":"DZ-38","latitude":"35.60537810","longitude":"1.81309800"},{"id":1131,"name":"Tizi Ouzou","country_id":4,"country_code":"DZ","iso2":"15","iso3166_2":"DZ-15","latitude":"36.68161750","longitude":"4.23718600"},{"id":1107,"name":"Tlemcen","country_id":4,"country_code":"DZ","iso2":"13","iso3166_2":"DZ-13","latitude":"34.66746800","longitude":"-1.29781320"},{"id":4911,"name":"Touggourt","country_id":4,"country_code":"DZ","iso2":"55","iso3166_2":"DZ-55","latitude":"33.10485740","longitude":"6.06672760"},{"id":5375,"name":"Eastern","country_id":5,"country_code":"AS","iso2":"02","iso3166_2":"AS-02","latitude":"-14.27824020","longitude":"-170.62432270"},{"id":5376,"name":"Manuʻa","country_id":5,"country_code":"AS","iso2":"03","iso3166_2":"AS-03","latitude":"-14.21460500","longitude":"-169.53346500"},{"id":5378,"name":"Rose","country_id":5,"country_code":"AS","iso2":"05","iso3166_2":"AS-05","latitude":"-14.54248650","longitude":"-168.16374450"},{"id":5377,"name":"Swains","country_id":5,"country_code":"AS","iso2":"04","iso3166_2":"AS-04","latitude":"-11.05290400","longitude":"-171.07673490"},{"id":5374,"name":"Western","country_id":5,"country_code":"AS","iso2":"01","iso3166_2":"AS-01","latitude":"-14.33230750","longitude":"-170.79613340"},{"id":488,"name":"Andorra la Vella","country_id":6,"country_code":"AD","iso2":"07","iso3166_2":"AD-07","latitude":"42.50631740","longitude":"1.52183550"},{"id":489,"name":"Canillo","country_id":6,"country_code":"AD","iso2":"02","iso3166_2":"AD-02","latitude":"42.58680920","longitude":"1.65744310"},{"id":487,"name":"Encamp","country_id":6,"country_code":"AD","iso2":"03","iso3166_2":"AD-03","latitude":"42.53597640","longitude":"1.58367730"},{"id":492,"name":"Escaldes-Engordany","country_id":6,"country_code":"AD","iso2":"08","iso3166_2":"AD-08","latitude":"42.48619600","longitude":"1.60377110"},{"id":493,"name":"La Massana","country_id":6,"country_code":"AD","iso2":"04","iso3166_2":"AD-04","latitude":"42.54562500","longitude":"1.51473920"},{"id":491,"name":"Ordino","country_id":6,"country_code":"AD","iso2":"05","iso3166_2":"AD-05","latitude":"42.59944330","longitude":"1.54023270"},{"id":490,"name":"Sant Julià de Lòria","country_id":6,"country_code":"AD","iso2":"06","iso3166_2":"AD-06","latitude":"42.46685410","longitude":"1.49232770"},{"id":221,"name":"Bengo","country_id":7,"country_code":"AO","iso2":"BGO","iso3166_2":"AO-BGO","latitude":"-8.31966720","longitude":"13.86561950"},{"id":218,"name":"Benguela","country_id":7,"country_code":"AO","iso2":"BGU","iso3166_2":"AO-BGU","latitude":"-12.91046570","longitude":"14.03566080"},{"id":212,"name":"Bié","country_id":7,"country_code":"AO","iso2":"BIE","iso3166_2":"AO-BIE","latitude":"-12.26304850","longitude":"17.49678120"},{"id":228,"name":"Cabinda","country_id":7,"country_code":"AO","iso2":"CAB","iso3166_2":"AO-CAB","latitude":"-5.05639500","longitude":"12.32117490"},{"id":226,"name":"Cuando Cubango","country_id":7,"country_code":"AO","iso2":"CCU","iso3166_2":"AO-CCU","latitude":"-16.04576940","longitude":"19.56215320"},{"id":216,"name":"Cuanza","country_id":7,"country_code":"AO","iso2":"CUS","iso3166_2":"AO-CUS","latitude":"-10.77075270","longitude":"15.09757120"},{"id":217,"name":"Cuanza Norte","country_id":7,"country_code":"AO","iso2":"CNO","iso3166_2":"AO-CNO","latitude":"-9.02967520","longitude":"15.09263240"},{"id":215,"name":"Cunene","country_id":7,"country_code":"AO","iso2":"CNN","iso3166_2":"AO-CNN","latitude":"-16.55685360","longitude":"15.78673190"},{"id":213,"name":"Huambo","country_id":7,"country_code":"AO","iso2":"HUA","iso3166_2":"AO-HUA","latitude":"-12.60763180","longitude":"15.74110390"},{"id":225,"name":"Huíla","country_id":7,"country_code":"AO","iso2":"HUI","iso3166_2":"AO-HUI","latitude":"-14.69578080","longitude":"15.09762930"},{"id":222,"name":"Luanda","country_id":7,"country_code":"AO","iso2":"LUA","iso3166_2":"AO-LUA","latitude":"-8.83157470","longitude":"13.24797000"},{"id":223,"name":"Lunda Norte","country_id":7,"country_code":"AO","iso2":"LNO","iso3166_2":"AO-LNO","latitude":"-8.50882530","longitude":"19.75386180"},{"id":220,"name":"Lunda Sul","country_id":7,"country_code":"AO","iso2":"LSU","iso3166_2":"AO-LSU","latitude":"-10.14737790","longitude":"20.99077560"},{"id":227,"name":"Malanje","country_id":7,"country_code":"AO","iso2":"MAL","iso3166_2":"AO-MAL","latitude":"-9.53533200","longitude":"16.93642930"},{"id":219,"name":"Moxico","country_id":7,"country_code":"AO","iso2":"MOX","iso3166_2":"AO-MOX","latitude":"-12.72871950","longitude":"21.27376370"},{"id":5469,"name":"Namibe","country_id":7,"country_code":"AO","iso2":"NAM","iso3166_2":"AO-NAM","latitude":"-15.20000000","longitude":"12.15000000"},{"id":224,"name":"Uíge","country_id":7,"country_code":"AO","iso2":"UIG","iso3166_2":"AO-UIG","latitude":"-6.95168020","longitude":"15.47991640"},{"id":214,"name":"Zaire","country_id":7,"country_code":"AO","iso2":"ZAI","iso3166_2":"AO-ZAI","latitude":"-6.69251310","longitude":"13.52930290"},{"id":5273,"name":"Blowing Point","country_id":8,"country_code":"AI","iso2":"01","iso3166_2":"AI-01","latitude":"18.17655530","longitude":"-63.10212960"},{"id":5274,"name":"East End","country_id":8,"country_code":"AI","iso2":"02","iso3166_2":"AI-02","latitude":"18.23426290","longitude":"-62.99737400"},{"id":5275,"name":"George Hill","country_id":8,"country_code":"AI","iso2":"03","iso3166_2":"AI-03","latitude":"18.20365990","longitude":"-63.06481120"},{"id":5276,"name":"Island Harbour","country_id":8,"country_code":"AI","iso2":"04","iso3166_2":"AI-04","latitude":"18.25568880","longitude":"-63.00128140"},{"id":5277,"name":"North Hill","country_id":8,"country_code":"AI","iso2":"05","iso3166_2":"AI-05","latitude":"18.20508630","longitude":"-63.08584570"},{"id":5278,"name":"North Side","country_id":8,"country_code":"AI","iso2":"06","iso3166_2":"AI-06","latitude":"18.23005440","longitude":"-63.05188900"},{"id":5279,"name":"Sandy Ground","country_id":8,"country_code":"AI","iso2":"07","iso3166_2":"AI-07","latitude":"18.20185510","longitude":"-63.09734710"},{"id":5280,"name":"Sandy Hill","country_id":8,"country_code":"AI","iso2":"08","iso3166_2":"AI-08","latitude":"18.21892100","longitude":"-63.01299160"},{"id":5281,"name":"South Hill","country_id":8,"country_code":"AI","iso2":"09","iso3166_2":"AI-09","latitude":"18.18924750","longitude":"-63.09763670"},{"id":5282,"name":"Stoney Ground","country_id":8,"country_code":"AI","iso2":"10","iso3166_2":"AI-10","latitude":"18.21799970","longitude":"-63.04007270"},{"id":5283,"name":"The Farrington","country_id":8,"country_code":"AI","iso2":"11","iso3166_2":"AI-11","latitude":"18.21347010","longitude":"-63.02721620"},{"id":5284,"name":"The Quarter","country_id":8,"country_code":"AI","iso2":"12","iso3166_2":"AI-12","latitude":"18.21453340","longitude":"-63.05644890"},{"id":5285,"name":"The Valley","country_id":8,"country_code":"AI","iso2":"13","iso3166_2":"AI-13","latitude":"18.21458610","longitude":"-63.05177590"},{"id":5286,"name":"West End","country_id":8,"country_code":"AI","iso2":"14","iso3166_2":"AI-14","latitude":"18.17216660","longitude":"-63.15670370"},{"id":3708,"name":"Barbuda","country_id":10,"country_code":"AG","iso2":"10","iso3166_2":"AG-10","latitude":"17.62192030","longitude":"-61.78395880"},{"id":3703,"name":"Redonda","country_id":10,"country_code":"AG","iso2":"11","iso3166_2":"AG-11","latitude":"16.93841600","longitude":"-62.34551480"},{"id":3709,"name":"Saint George","country_id":10,"country_code":"AG","iso2":"03","iso3166_2":"AG-03","latitude":"17.12180220","longitude":"-61.78123000"},{"id":3706,"name":"Saint John","country_id":10,"country_code":"AG","iso2":"04","iso3166_2":"AG-04","latitude":"17.11515020","longitude":"-61.85834880"},{"id":3707,"name":"Saint Mary","country_id":10,"country_code":"AG","iso2":"05","iso3166_2":"AG-05","latitude":"17.05481500","longitude":"-61.86023680"},{"id":3705,"name":"Saint Paul","country_id":10,"country_code":"AG","iso2":"06","iso3166_2":"AG-06","latitude":"17.03258310","longitude":"-61.77065670"},{"id":3704,"name":"Saint Peter","country_id":10,"country_code":"AG","iso2":"07","iso3166_2":"AG-07","latitude":"17.10702390","longitude":"-61.75021430"},{"id":3710,"name":"Saint Philip","country_id":10,"country_code":"AG","iso2":"08","iso3166_2":"AG-08","latitude":"17.06635700","longitude":"-61.70619570"},{"id":4880,"name":"Autonomous City of Buenos Aires","country_id":11,"country_code":"AR","iso2":"C","iso3166_2":"AR-C","latitude":"-34.61612310","longitude":"-58.43562120"},{"id":3656,"name":"Buenos Aires","country_id":11,"country_code":"AR","iso2":"B","iso3166_2":"AR-B","latitude":"-37.14984030","longitude":"-60.13194560"},{"id":3647,"name":"Catamarca","country_id":11,"country_code":"AR","iso2":"K","iso3166_2":"AR-K","latitude":"-28.47158770","longitude":"-65.78772090"},{"id":3640,"name":"Chaco","country_id":11,"country_code":"AR","iso2":"H","iso3166_2":"AR-H","latitude":"-26.38296470","longitude":"-60.88160920"},{"id":3651,"name":"Chubut","country_id":11,"country_code":"AR","iso2":"U","iso3166_2":"AR-U","latitude":"-43.71283560","longitude":"-68.74618170"},{"id":3642,"name":"Córdoba","country_id":11,"country_code":"AR","iso2":"X","iso3166_2":"AR-X","latitude":"-31.41668670","longitude":"-64.18341930"},{"id":3638,"name":"Corrientes","country_id":11,"country_code":"AR","iso2":"W","iso3166_2":"AR-W","latitude":"-27.48186840","longitude":"-58.79558720"},{"id":3654,"name":"Entre Ríos","country_id":11,"country_code":"AR","iso2":"E","iso3166_2":"AR-E","latitude":"-31.62528420","longitude":"-59.35395780"},{"id":3652,"name":"Formosa","country_id":11,"country_code":"AR","iso2":"P","iso3166_2":"AR-P","latitude":"-26.18529830","longitude":"-58.17449760"},{"id":3645,"name":"Jujuy","country_id":11,"country_code":"AR","iso2":"Y","iso3166_2":"AR-Y","latitude":"-23.31614580","longitude":"-65.75952880"},{"id":3655,"name":"La Pampa","country_id":11,"country_code":"AR","iso2":"L","iso3166_2":"AR-L","latitude":"-37.23146430","longitude":"-65.39729480"},{"id":3653,"name":"La Rioja","country_id":11,"country_code":"AR","iso2":"F","iso3166_2":"AR-F","latitude":"-29.41937930","longitude":"-66.85599320"},{"id":3646,"name":"Mendoza","country_id":11,"country_code":"AR","iso2":"M","iso3166_2":"AR-M","latitude":"-32.88945870","longitude":"-68.84583860"},{"id":3644,"name":"Misiones","country_id":11,"country_code":"AR","iso2":"N","iso3166_2":"AR-N","latitude":"-26.73722400","longitude":"-54.43152570"},{"id":3648,"name":"Neuquén","country_id":11,"country_code":"AR","iso2":"Q","iso3166_2":"AR-Q","latitude":"-38.95196790","longitude":"-68.05917410"},{"id":3639,"name":"Río Negro","country_id":11,"country_code":"AR","iso2":"R","iso3166_2":"AR-R","latitude":"-39.72963210","longitude":"-65.34181890"},{"id":3643,"name":"Salta","country_id":11,"country_code":"AR","iso2":"A","iso3166_2":"AR-A","latitude":"-24.78929460","longitude":"-65.41031940"},{"id":3634,"name":"San Juan","country_id":11,"country_code":"AR","iso2":"J","iso3166_2":"AR-J","latitude":"-31.53709090","longitude":"-68.52518020"},{"id":3636,"name":"San Luis","country_id":11,"country_code":"AR","iso2":"D","iso3166_2":"AR-D","latitude":"-33.29620420","longitude":"-66.32949480"},{"id":3649,"name":"Santa Cruz","country_id":11,"country_code":"AR","iso2":"Z","iso3166_2":"AR-Z","latitude":"-48.56933270","longitude":"-70.16067670"},{"id":3641,"name":"Santa Fe","country_id":11,"country_code":"AR","iso2":"S","iso3166_2":"AR-S","latitude":"-31.61869510","longitude":"-60.70195610"},{"id":3635,"name":"Santiago del Estero","country_id":11,"country_code":"AR","iso2":"G","iso3166_2":"AR-G","latitude":"-27.78335740","longitude":"-64.26416700"},{"id":3650,"name":"Tierra del Fuego","country_id":11,"country_code":"AR","iso2":"V","iso3166_2":"AR-V","latitude":"-54.40710640","longitude":"-67.89748950"},{"id":3637,"name":"Tucumán","country_id":11,"country_code":"AR","iso2":"T","iso3166_2":"AR-T","latitude":"-26.83037030","longitude":"-65.20381330"},{"id":2023,"name":"Aragatsotn","country_id":12,"country_code":"AM","iso2":"AG","iso3166_2":"AM-AG","latitude":"40.25803490","longitude":"44.17950890"},{"id":2024,"name":"Ararat","country_id":12,"country_code":"AM","iso2":"AR","iso3166_2":"AM-AR","latitude":"39.85533290","longitude":"44.69437930"},{"id":2026,"name":"Armavir","country_id":12,"country_code":"AM","iso2":"AV","iso3166_2":"AM-AV","latitude":"40.15546310","longitude":"44.03724460"},{"id":2028,"name":"Gegharkunik","country_id":12,"country_code":"AM","iso2":"GR","iso3166_2":"AM-GR","latitude":"40.24832990","longitude":"45.14551260"},{"id":2033,"name":"Kotayk","country_id":12,"country_code":"AM","iso2":"KT","iso3166_2":"AM-KT","latitude":"40.40332750","longitude":"44.69599230"},{"id":2029,"name":"Lori","country_id":12,"country_code":"AM","iso2":"LO","iso3166_2":"AM-LO","latitude":"41.00727100","longitude":"44.49001130"},{"id":2031,"name":"Shirak","country_id":12,"country_code":"AM","iso2":"SH","iso3166_2":"AM-SH","latitude":"40.91859400","longitude":"43.84035360"},{"id":2027,"name":"Syunik","country_id":12,"country_code":"AM","iso2":"SU","iso3166_2":"AM-SU","latitude":"39.32814080","longitude":"46.15302960"},{"id":2032,"name":"Tavush","country_id":12,"country_code":"AM","iso2":"TV","iso3166_2":"AM-TV","latitude":"40.91764240","longitude":"45.40506810"},{"id":2025,"name":"Vayots Dzor","country_id":12,"country_code":"AM","iso2":"VD","iso3166_2":"AM-VD","latitude":"39.80198490","longitude":"45.45575910"},{"id":2030,"name":"Yerevan","country_id":12,"country_code":"AM","iso2":"ER","iso3166_2":"AM-ER","latitude":"40.17771120","longitude":"44.51262330"},{"id":5243,"name":"Noord","country_id":13,"country_code":"AW","iso2":"01","iso3166_2":"AW-01","latitude":"12.56368050","longitude":"-70.03298690"},{"id":5341,"name":"Oranjestad","country_id":13,"country_code":"AW","iso2":"09","iso3166_2":"AW-09","latitude":"12.52010240","longitude":"-70.03713290"},{"id":5245,"name":"Oranjestad East","country_id":13,"country_code":"AW","iso2":"03","iso3166_2":"AW-03","latitude":"12.50226960","longitude":"-70.01495860"},{"id":5244,"name":"Oranjestad West","country_id":13,"country_code":"AW","iso2":"02","iso3166_2":"AW-02","latitude":"12.53614860","longitude":"-70.04305970"},{"id":5246,"name":"Paradera","country_id":13,"country_code":"AW","iso2":"04","iso3166_2":"AW-04","latitude":"12.53628710","longitude":"-70.01485110"},{"id":5247,"name":"San Nicolaas Noord","country_id":13,"country_code":"AW","iso2":"05","iso3166_2":"AW-05","latitude":"12.46427170","longitude":"-69.94349390"},{"id":5248,"name":"San Nicolaas Zuid","country_id":13,"country_code":"AW","iso2":"06","iso3166_2":"AW-06","latitude":"12.42785580","longitude":"-69.93810790"},{"id":5249,"name":"Santa Cruz","country_id":13,"country_code":"AW","iso2":"07","iso3166_2":"AW-07","latitude":"12.51128360","longitude":"-69.98769660"},{"id":5250,"name":"Savaneta","country_id":13,"country_code":"AW","iso2":"08","iso3166_2":"AW-08","latitude":"12.45263850","longitude":"-69.94965210"},{"id":3907,"name":"Australian Capital Territory","country_id":14,"country_code":"AU","iso2":"ACT","iso3166_2":"AU-ACT","latitude":"-35.48835020","longitude":"149.00269420"},{"id":3909,"name":"New South Wales","country_id":14,"country_code":"AU","iso2":"NSW","iso3166_2":"AU-NSW","latitude":"-31.87598350","longitude":"147.28694930"},{"id":3910,"name":"Northern Territory","country_id":14,"country_code":"AU","iso2":"NT","iso3166_2":"AU-NT","latitude":"-19.85161010","longitude":"133.23033750"},{"id":3905,"name":"Queensland","country_id":14,"country_code":"AU","iso2":"QLD","iso3166_2":"AU-QLD","latitude":"-22.16467820","longitude":"144.58449030"},{"id":3904,"name":"South Australia","country_id":14,"country_code":"AU","iso2":"SA","iso3166_2":"AU-SA","latitude":"-30.53436650","longitude":"135.63012120"},{"id":3908,"name":"Tasmania","country_id":14,"country_code":"AU","iso2":"TAS","iso3166_2":"AU-TAS","latitude":"-42.03506700","longitude":"146.63668870"},{"id":3903,"name":"Victoria","country_id":14,"country_code":"AU","iso2":"VIC","iso3166_2":"AU-VIC","latitude":"-36.59860960","longitude":"144.67800520"},{"id":3906,"name":"Western Australia","country_id":14,"country_code":"AU","iso2":"WA","iso3166_2":"AU-WA","latitude":"-25.23030050","longitude":"121.01872460"},{"id":2062,"name":"Burgenland","country_id":15,"country_code":"AT","iso2":"1","iso3166_2":"AT-1","latitude":"47.50000010","longitude":"16.41666660"},{"id":2057,"name":"Carinthia","country_id":15,"country_code":"AT","iso2":"2","iso3166_2":"AT-2","latitude":"46.75000010","longitude":"13.83333330"},{"id":2065,"name":"Lower Austria","country_id":15,"country_code":"AT","iso2":"3","iso3166_2":"AT-3","latitude":"48.28178130","longitude":"15.76324570"},{"id":2061,"name":"Salzburg","country_id":15,"country_code":"AT","iso2":"5","iso3166_2":"AT-5","latitude":"47.79813460","longitude":"13.04648060"},{"id":2059,"name":"Styria","country_id":15,"country_code":"AT","iso2":"6","iso3166_2":"AT-6","latitude":"47.25000010","longitude":"15.16666650"},{"id":2064,"name":"Tyrol","country_id":15,"country_code":"AT","iso2":"7","iso3166_2":"AT-7","latitude":"47.22319300","longitude":"11.52610280"},{"id":2058,"name":"Upper Austria","country_id":15,"country_code":"AT","iso2":"4","iso3166_2":"AT-4","latitude":"48.25000000","longitude":"14.00000000"},{"id":2060,"name":"Vienna","country_id":15,"country_code":"AT","iso2":"9","iso3166_2":"AT-9","latitude":"48.20817430","longitude":"16.37381890"},{"id":2063,"name":"Vorarlberg","country_id":15,"country_code":"AT","iso2":"8","iso3166_2":"AT-8","latitude":"47.25000000","longitude":"9.91666670"},{"id":540,"name":"Absheron","country_id":16,"country_code":"AZ","iso2":"ABS","iso3166_2":"AZ-ABS","latitude":"40.33618990","longitude":"49.20930000"},{"id":559,"name":"Agdam","country_id":16,"country_code":"AZ","iso2":"AGM","iso3166_2":"AZ-AGM","latitude":"39.99282150","longitude":"46.93240130"},{"id":553,"name":"Agdash","country_id":16,"country_code":"AZ","iso2":"AGS","iso3166_2":"AZ-AGS","latitude":"40.16729670","longitude":"46.08572520"},{"id":577,"name":"Aghjabadi","country_id":16,"country_code":"AZ","iso2":"AGC","iso3166_2":"AZ-AGC","latitude":"40.05054400","longitude":"47.46074620"},{"id":543,"name":"Agstafa","country_id":16,"country_code":"AZ","iso2":"AGA","iso3166_2":"AZ-AGA","latitude":"41.19806510","longitude":"45.52809530"},{"id":547,"name":"Agsu","country_id":16,"country_code":"AZ","iso2":"AGU","iso3166_2":"AZ-AGU","latitude":"40.55830000","longitude":"48.35297100"},{"id":528,"name":"Astara","country_id":16,"country_code":"AZ","iso2":"AST","iso3166_2":"AZ-AST","latitude":"38.51559770","longitude":"48.82832230"},{"id":575,"name":"Babek","country_id":16,"country_code":"AZ","iso2":"BAB","iso3166_2":"AZ-BAB","latitude":"39.15076130","longitude":"45.44853680"},{"id":552,"name":"Baku","country_id":16,"country_code":"AZ","iso2":"BA","iso3166_2":"AZ-BA","latitude":"40.37558850","longitude":"49.83280090"},{"id":560,"name":"Balakan","country_id":16,"country_code":"AZ","iso2":"BAL","iso3166_2":"AZ-BAL","latitude":"41.73193690","longitude":"46.40018810"},{"id":569,"name":"Barda","country_id":16,"country_code":"AZ","iso2":"BAR","iso3166_2":"AZ-BAR","latitude":"40.38124570","longitude":"47.12462870"},{"id":554,"name":"Beylagan","country_id":16,"country_code":"AZ","iso2":"BEY","iso3166_2":"AZ-BEY","latitude":"39.77230730","longitude":"47.61541660"},{"id":532,"name":"Bilasuvar","country_id":16,"country_code":"AZ","iso2":"BIL","iso3166_2":"AZ-BIL","latitude":"39.45988330","longitude":"48.55098130"},{"id":561,"name":"Dashkasan","country_id":16,"country_code":"AZ","iso2":"DAS","iso3166_2":"AZ-DAS","latitude":"40.47519600","longitude":"46.01507050"},{"id":527,"name":"Fizuli","country_id":16,"country_code":"AZ","iso2":"FUZ","iso3166_2":"AZ-FUZ","latitude":"39.58356750","longitude":"47.38069980"},{"id":585,"name":"Ganja","country_id":16,"country_code":"AZ","iso2":"GA","iso3166_2":"AZ-GA","latitude":"40.67980830","longitude":"46.35971780"},{"id":589,"name":"Gədəbəy","country_id":16,"country_code":"AZ","iso2":"GAD","iso3166_2":"AZ-GAD","latitude":"40.56996390","longitude":"45.81068830"},{"id":573,"name":"Gobustan","country_id":16,"country_code":"AZ","iso2":"QOB","iso3166_2":"AZ-QOB","latitude":"40.53260440","longitude":"48.99416760"},{"id":551,"name":"Goranboy","country_id":16,"country_code":"AZ","iso2":"GOR","iso3166_2":"AZ-GOR","latitude":"40.60357230","longitude":"46.70739060"},{"id":531,"name":"Goychay","country_id":16,"country_code":"AZ","iso2":"GOY","iso3166_2":"AZ-GOY","latitude":"40.64944150","longitude":"47.74122080"},{"id":574,"name":"Goygol","country_id":16,"country_code":"AZ","iso2":"GYG","iso3166_2":"AZ-GYG","latitude":"40.58800400","longitude":"46.32109500"},{"id":571,"name":"Hajigabul","country_id":16,"country_code":"AZ","iso2":"HAC","iso3166_2":"AZ-HAC","latitude":"40.02865570","longitude":"48.93507970"},{"id":544,"name":"Imishli","country_id":16,"country_code":"AZ","iso2":"IMI","iso3166_2":"AZ-IMI","latitude":"39.86946860","longitude":"48.06652180"},{"id":564,"name":"Ismailli","country_id":16,"country_code":"AZ","iso2":"ISM","iso3166_2":"AZ-ISM","latitude":"40.78805600","longitude":"48.14856530"},{"id":570,"name":"Jabrayil","country_id":16,"country_code":"AZ","iso2":"CAB","iso3166_2":"AZ-CAB","latitude":"39.31880610","longitude":"46.97855470"},{"id":578,"name":"Jalilabad","country_id":16,"country_code":"AZ","iso2":"CAL","iso3166_2":"AZ-CAL","latitude":"39.20516320","longitude":"48.51006040"},{"id":572,"name":"Julfa","country_id":16,"country_code":"AZ","iso2":"CUL","iso3166_2":"AZ-CUL","latitude":"39.14114200","longitude":"45.69497120"},{"id":525,"name":"Kalbajar","country_id":16,"country_code":"AZ","iso2":"KAL","iso3166_2":"AZ-KAL","latitude":"40.10243290","longitude":"46.03648720"},{"id":567,"name":"Kangarli","country_id":16,"country_code":"AZ","iso2":"KAN","iso3166_2":"AZ-KAN","latitude":"39.36322160","longitude":"45.20983080"},{"id":590,"name":"Khachmaz","country_id":16,"country_code":"AZ","iso2":"XAC","iso3166_2":"AZ-XAC","latitude":"41.45911680","longitude":"48.80206260"},{"id":5472,"name":"Khankendi","country_id":16,"country_code":"AZ","iso2":"XA","iso3166_2":"AZ-XA","latitude":"39.82660000","longitude":"46.75560000"},{"id":537,"name":"Khizi","country_id":16,"country_code":"AZ","iso2":"XIZ","iso3166_2":"AZ-XIZ","latitude":"40.91094890","longitude":"49.07292640"},{"id":524,"name":"Khojali","country_id":16,"country_code":"AZ","iso2":"XCI","iso3166_2":"AZ-XCI","latitude":"38.75847270","longitude":"48.85643020"},{"id":549,"name":"Kurdamir","country_id":16,"country_code":"AZ","iso2":"KUR","iso3166_2":"AZ-KUR","latitude":"40.34552470","longitude":"48.14889510"},{"id":541,"name":"Lachin","country_id":16,"country_code":"AZ","iso2":"LAC","iso3166_2":"AZ-LAC","latitude":"39.63834140","longitude":"46.54608530"},{"id":587,"name":"Lankaran","country_id":16,"country_code":"AZ","iso2":"LAN","iso3166_2":"AZ-LAN","latitude":"38.76189730","longitude":"48.84377840"},{"id":558,"name":"Lankaran","country_id":16,"country_code":"AZ","iso2":"LA","iso3166_2":"AZ-LA","latitude":"38.76189730","longitude":"48.84377840"},{"id":546,"name":"Lerik","country_id":16,"country_code":"AZ","iso2":"LER","iso3166_2":"AZ-LER","latitude":"38.77361920","longitude":"48.41514830"},{"id":568,"name":"Martuni","country_id":16,"country_code":"AZ","iso2":"XVD","iso3166_2":"AZ-XVD","latitude":"39.81843890","longitude":"46.74808670"},{"id":555,"name":"Masally","country_id":16,"country_code":"AZ","iso2":"MAS","iso3166_2":"AZ-MAS","latitude":"39.03221110","longitude":"48.67210930"},{"id":580,"name":"Mingachevir","country_id":16,"country_code":"AZ","iso2":"MI","iso3166_2":"AZ-MI","latitude":"40.77025630","longitude":"47.04960150"},{"id":5470,"name":"Naftalan","country_id":16,"country_code":"AZ","iso2":"NA","iso3166_2":"AZ-NA","latitude":"40.50610000","longitude":"46.82440000"},{"id":5471,"name":"Nakhchivan","country_id":16,"country_code":"AZ","iso2":"NV","iso3166_2":"AZ-NV","latitude":"39.20890000","longitude":"45.41220000"},{"id":562,"name":"Nakhchivan","country_id":16,"country_code":"AZ","iso2":"NX","iso3166_2":"AZ-NX","latitude":"39.21749700","longitude":"45.40696710"},{"id":530,"name":"Neftchala","country_id":16,"country_code":"AZ","iso2":"NEF","iso3166_2":"AZ-NEF","latitude":"39.37905320","longitude":"49.24860700"},{"id":556,"name":"Oghuz","country_id":16,"country_code":"AZ","iso2":"OGU","iso3166_2":"AZ-OGU","latitude":"41.07279240","longitude":"47.46506720"},{"id":534,"name":"Ordubad","country_id":16,"country_code":"AZ","iso2":"ORD","iso3166_2":"AZ-ORD","latitude":"38.90216220","longitude":"46.02376250"},{"id":542,"name":"Qabala","country_id":16,"country_code":"AZ","iso2":"QAB","iso3166_2":"AZ-QAB","latitude":"40.94360640","longitude":"47.82133770"},{"id":526,"name":"Qakh","country_id":16,"country_code":"AZ","iso2":"QAX","iso3166_2":"AZ-QAX","latitude":"41.41855150","longitude":"46.91920970"},{"id":521,"name":"Qazakh","country_id":16,"country_code":"AZ","iso2":"QAZ","iso3166_2":"AZ-QAZ","latitude":"41.17073660","longitude":"45.25288330"},{"id":563,"name":"Quba","country_id":16,"country_code":"AZ","iso2":"QBA","iso3166_2":"AZ-QBA","latitude":"41.18808930","longitude":"48.37214520"},{"id":548,"name":"Qubadli","country_id":16,"country_code":"AZ","iso2":"QBI","iso3166_2":"AZ-QBI","latitude":"39.33359580","longitude":"46.63354000"},{"id":588,"name":"Qusar","country_id":16,"country_code":"AZ","iso2":"QUS","iso3166_2":"AZ-QUS","latitude":"41.42668860","longitude":"48.43455770"},{"id":557,"name":"Saatly","country_id":16,"country_code":"AZ","iso2":"SAT","iso3166_2":"AZ-SAT","latitude":"39.93760090","longitude":"48.36890970"},{"id":565,"name":"Sabirabad","country_id":16,"country_code":"AZ","iso2":"SAB","iso3166_2":"AZ-SAB","latitude":"40.00800600","longitude":"48.47503200"},{"id":522,"name":"Sadarak","country_id":16,"country_code":"AZ","iso2":"SAD","iso3166_2":"AZ-SAD","latitude":"39.67274070","longitude":"44.91387390"},{"id":545,"name":"Salyan","country_id":16,"country_code":"AZ","iso2":"SAL","iso3166_2":"AZ-SAL","latitude":"39.65241010","longitude":"49.10843810"},{"id":536,"name":"Samukh","country_id":16,"country_code":"AZ","iso2":"SMX","iso3166_2":"AZ-SMX","latitude":"40.76046310","longitude":"46.40631810"},{"id":591,"name":"Shabran","country_id":16,"country_code":"AZ","iso2":"SBN","iso3166_2":"AZ-SBN","latitude":"41.17761610","longitude":"48.87670580"},{"id":579,"name":"Shahbuz","country_id":16,"country_code":"AZ","iso2":"SAH","iso3166_2":"AZ-SAH","latitude":"39.43858170","longitude":"45.60713330"},{"id":518,"name":"Shaki","country_id":16,"country_code":"AZ","iso2":"SA","iso3166_2":"AZ-SA","latitude":"41.20336090","longitude":"47.18026230"},{"id":586,"name":"Shaki","country_id":16,"country_code":"AZ","iso2":"SAK","iso3166_2":"AZ-SAK","latitude":"41.20336090","longitude":"47.18026230"},{"id":529,"name":"Shamakhi","country_id":16,"country_code":"AZ","iso2":"SMI","iso3166_2":"AZ-SMI","latitude":"40.63187310","longitude":"48.63638010"},{"id":583,"name":"Shamkir","country_id":16,"country_code":"AZ","iso2":"SKR","iso3166_2":"AZ-SKR","latitude":"40.83579640","longitude":"46.02462240"},{"id":535,"name":"Sharur","country_id":16,"country_code":"AZ","iso2":"SAR","iso3166_2":"AZ-SAR","latitude":"39.55363320","longitude":"44.98456800"},{"id":520,"name":"Shirvan","country_id":16,"country_code":"AZ","iso2":"SR","iso3166_2":"AZ-SR","latitude":"39.92965730","longitude":"48.93426570"},{"id":592,"name":"Shusha","country_id":16,"country_code":"AZ","iso2":"SUS","iso3166_2":"AZ-SUS","latitude":"39.76325670","longitude":"46.75115010"},{"id":584,"name":"Siazan","country_id":16,"country_code":"AZ","iso2":"SIY","iso3166_2":"AZ-SIY","latitude":"41.07838330","longitude":"49.11184770"},{"id":582,"name":"Sumqayit","country_id":16,"country_code":"AZ","iso2":"SM","iso3166_2":"AZ-SM","latitude":"40.59615850","longitude":"49.66966680"},{"id":519,"name":"Tartar","country_id":16,"country_code":"AZ","iso2":"TAR","iso3166_2":"AZ-TAR","latitude":"40.34438750","longitude":"46.93765190"},{"id":533,"name":"Tovuz","country_id":16,"country_code":"AZ","iso2":"TOV","iso3166_2":"AZ-TOV","latitude":"40.99545230","longitude":"45.61659070"},{"id":539,"name":"Ujar","country_id":16,"country_code":"AZ","iso2":"UCA","iso3166_2":"AZ-UCA","latitude":"40.51853860","longitude":"47.64878090"},{"id":550,"name":"Yardymli","country_id":16,"country_code":"AZ","iso2":"YAR","iso3166_2":"AZ-YAR","latitude":"38.90289930","longitude":"48.21329830"},{"id":523,"name":"Yevlakh","country_id":16,"country_code":"AZ","iso2":"YEV","iso3166_2":"AZ-YEV","latitude":"40.61151360","longitude":"47.14666860"},{"id":538,"name":"Yevlakh","country_id":16,"country_code":"AZ","iso2":"YE","iso3166_2":"AZ-YE","latitude":"40.61151360","longitude":"47.14666860"},{"id":581,"name":"Zangilan","country_id":16,"country_code":"AZ","iso2":"ZAN","iso3166_2":"AZ-ZAN","latitude":"39.08568990","longitude":"46.65247280"},{"id":566,"name":"Zaqatala","country_id":16,"country_code":"AZ","iso2":"ZAQ","iso3166_2":"AZ-ZAQ","latitude":"41.61803210","longitude":"46.75951260"},{"id":576,"name":"Zardab","country_id":16,"country_code":"AZ","iso2":"ZAR","iso3166_2":"AZ-ZAR","latitude":"40.21481140","longitude":"47.71494400"},{"id":1992,"name":"Capital","country_id":18,"country_code":"BH","iso2":"13","iso3166_2":"BH-13","latitude":"26.42432330","longitude":"50.47472510"},{"id":1995,"name":"Muharraq","country_id":18,"country_code":"BH","iso2":"15","iso3166_2":"BH-15","latitude":"26.24659460","longitude":"50.61641270"},{"id":1994,"name":"Northern","country_id":18,"country_code":"BH","iso2":"17","iso3166_2":"BH-17","latitude":"26.27784770","longitude":"50.41811230"},{"id":1993,"name":"Southern","country_id":18,"country_code":"BH","iso2":"14","iso3166_2":"BH-14","latitude":"25.84000690","longitude":"50.59026930"},{"id":5473,"name":"Bagerhat","country_id":19,"country_code":"BD","iso2":"05","iso3166_2":"BD-05","latitude":"22.65833000","longitude":"89.78333000"},{"id":5474,"name":"Bandarban","country_id":19,"country_code":"BD","iso2":"01","iso3166_2":"BD-01","latitude":"22.19534000","longitude":"92.21946000"},{"id":5475,"name":"Barguna","country_id":19,"country_code":"BD","iso2":"02","iso3166_2":"BD-02","latitude":"22.15330000","longitude":"90.11997000"},{"id":807,"name":"Barisal ","country_id":19,"country_code":"BD","iso2":"A","iso3166_2":"BD-A","latitude":"22.49340350","longitude":"90.35480150"},{"id":5476,"name":"Barishal","country_id":19,"country_code":"BD","iso2":"06","iso3166_2":"BD-06","latitude":"22.70100000","longitude":"90.35360000"},{"id":5477,"name":"Bhola","country_id":19,"country_code":"BD","iso2":"07","iso3166_2":"BD-07","latitude":"22.68540000","longitude":"90.64820000"},{"id":5478,"name":"Bogura","country_id":19,"country_code":"BD","iso2":"03","iso3166_2":"BD-03","latitude":"24.84656000","longitude":"89.37764000"},{"id":5479,"name":"Brahmanbaria","country_id":19,"country_code":"BD","iso2":"04","iso3166_2":"BD-04","latitude":"23.96090000","longitude":"91.11150000"},{"id":5480,"name":"Chandpur","country_id":19,"country_code":"BD","iso2":"09","iso3166_2":"BD-09","latitude":"23.25130000","longitude":"90.85180000"},{"id":5481,"name":"Chapai Nawabganj","country_id":19,"country_code":"BD","iso2":"45","iso3166_2":"BD-45","latitude":"24.59548000","longitude":"88.29125000"},{"id":5482,"name":"Chattogram","country_id":19,"country_code":"BD","iso2":"10","iso3166_2":"BD-10","latitude":"22.35690000","longitude":"91.78320000"},{"id":803,"name":"Chittagong ","country_id":19,"country_code":"BD","iso2":"B","iso3166_2":"BD-B","latitude":"22.68004660","longitude":"91.88399380"},{"id":5483,"name":"Chuadanga","country_id":19,"country_code":"BD","iso2":"12","iso3166_2":"BD-12","latitude":"23.64020000","longitude":"88.84120000"},{"id":5484,"name":"Cox's Bazar","country_id":19,"country_code":"BD","iso2":"11","iso3166_2":"BD-11","latitude":"21.43940000","longitude":"92.00990000"},{"id":5485,"name":"Cumilla","country_id":19,"country_code":"BD","iso2":"08","iso3166_2":"BD-08","latitude":"23.46050000","longitude":"91.18090000"},{"id":5486,"name":"Dhaka","country_id":19,"country_code":"BD","iso2":"13","iso3166_2":"BD-13","latitude":"23.81050000","longitude":"90.40720000"},{"id":760,"name":"Dhaka ","country_id":19,"country_code":"BD","iso2":"C","iso3166_2":"BD-C","latitude":"23.94561660","longitude":"90.25263820"},{"id":5487,"name":"Dinajpur","country_id":19,"country_code":"BD","iso2":"14","iso3166_2":"BD-14","latitude":"25.62770000","longitude":"88.63630000"},{"id":5488,"name":"Faridpur","country_id":19,"country_code":"BD","iso2":"15","iso3166_2":"BD-15","latitude":"23.60720000","longitude":"89.84060000"},{"id":5489,"name":"Feni","country_id":19,"country_code":"BD","iso2":"16","iso3166_2":"BD-16","latitude":"23.01330000","longitude":"91.40390000"},{"id":5490,"name":"Gaibandha","country_id":19,"country_code":"BD","iso2":"19","iso3166_2":"BD-19","latitude":"25.32880000","longitude":"89.54300000"},{"id":5491,"name":"Gazipur","country_id":19,"country_code":"BD","iso2":"18","iso3166_2":"BD-18","latitude":"24.09580000","longitude":"90.41250000"},{"id":5492,"name":"Gopalganj","country_id":19,"country_code":"BD","iso2":"17","iso3166_2":"BD-17","latitude":"23.00550000","longitude":"89.82660000"},{"id":5493,"name":"Habiganj","country_id":19,"country_code":"BD","iso2":"20","iso3166_2":"BD-20","latitude":"24.37440000","longitude":"91.41530000"},{"id":5494,"name":"Jamalpur","country_id":19,"country_code":"BD","iso2":"21","iso3166_2":"BD-21","latitude":"25.08330000","longitude":"89.93330000"},{"id":5495,"name":"Jashore","country_id":19,"country_code":"BD","iso2":"22","iso3166_2":"BD-22","latitude":"23.16650000","longitude":"89.21210000"},{"id":5496,"name":"Jhalakathi","country_id":19,"country_code":"BD","iso2":"25","iso3166_2":"BD-25","latitude":"22.64020000","longitude":"90.19870000"},{"id":5497,"name":"Jhenaidah","country_id":19,"country_code":"BD","iso2":"23","iso3166_2":"BD-23","latitude":"23.54490000","longitude":"89.17260000"},{"id":5498,"name":"Joypurhat","country_id":19,"country_code":"BD","iso2":"24","iso3166_2":"BD-24","latitude":"25.09360000","longitude":"89.09450000"},{"id":5499,"name":"Khagrachhari","country_id":19,"country_code":"BD","iso2":"29","iso3166_2":"BD-29","latitude":"23.11910000","longitude":"91.97660000"},{"id":5500,"name":"Khulna","country_id":19,"country_code":"BD","iso2":"27","iso3166_2":"BD-27","latitude":"22.81570000","longitude":"89.56810000"},{"id":775,"name":"Khulna ","country_id":19,"country_code":"BD","iso2":"D","iso3166_2":"BD-D","latitude":"22.93720870","longitude":"89.28527410"},{"id":5501,"name":"Kishoreganj","country_id":19,"country_code":"BD","iso2":"26","iso3166_2":"BD-26","latitude":"24.44400000","longitude":"90.77670000"},{"id":5502,"name":"Kurigram","country_id":19,"country_code":"BD","iso2":"28","iso3166_2":"BD-28","latitude":"25.80550000","longitude":"89.62770000"},{"id":5503,"name":"Kushtia","country_id":19,"country_code":"BD","iso2":"30","iso3166_2":"BD-30","latitude":"23.89070000","longitude":"89.11890000"},{"id":5504,"name":"Lakshmipur","country_id":19,"country_code":"BD","iso2":"31","iso3166_2":"BD-31","latitude":"22.94490000","longitude":"90.82820000"},{"id":5505,"name":"Lalmonirhat","country_id":19,"country_code":"BD","iso2":"32","iso3166_2":"BD-32","latitude":"25.91780000","longitude":"89.44520000"},{"id":5506,"name":"Madaripur","country_id":19,"country_code":"BD","iso2":"36","iso3166_2":"BD-36","latitude":"23.17000000","longitude":"90.18770000"},{"id":5507,"name":"Magura","country_id":19,"country_code":"BD","iso2":"37","iso3166_2":"BD-37","latitude":"23.48710000","longitude":"89.41980000"},{"id":5508,"name":"Manikganj","country_id":19,"country_code":"BD","iso2":"33","iso3166_2":"BD-33","latitude":"23.86140000","longitude":"90.00030000"},{"id":5509,"name":"Meherpur","country_id":19,"country_code":"BD","iso2":"39","iso3166_2":"BD-39","latitude":"23.76210000","longitude":"88.63180000"},{"id":5510,"name":"Moulvibazar","country_id":19,"country_code":"BD","iso2":"38","iso3166_2":"BD-38","latitude":"24.30940000","longitude":"91.73150000"},{"id":5511,"name":"Munshiganj","country_id":19,"country_code":"BD","iso2":"35","iso3166_2":"BD-35","latitude":"23.55180000","longitude":"90.41220000"},{"id":5512,"name":"Mymensingh","country_id":19,"country_code":"BD","iso2":"34","iso3166_2":"BD-34","latitude":"24.75360000","longitude":"90.40720000"},{"id":758,"name":"Mymensingh ","country_id":19,"country_code":"BD","iso2":"H","iso3166_2":"BD-H","latitude":"24.74821290","longitude":"90.40991580"},{"id":5513,"name":"Naogaon","country_id":19,"country_code":"BD","iso2":"48","iso3166_2":"BD-48","latitude":"24.80420000","longitude":"88.92540000"},{"id":5514,"name":"Narail","country_id":19,"country_code":"BD","iso2":"43","iso3166_2":"BD-43","latitude":"23.11630000","longitude":"89.49980000"},{"id":5515,"name":"Narayanganj","country_id":19,"country_code":"BD","iso2":"40","iso3166_2":"BD-40","latitude":"23.63380000","longitude":"90.50000000"},{"id":5516,"name":"Narsingdi","country_id":19,"country_code":"BD","iso2":"42","iso3166_2":"BD-42","latitude":"23.92320000","longitude":"90.71680000"},{"id":5517,"name":"Natore","country_id":19,"country_code":"BD","iso2":"44","iso3166_2":"BD-44","latitude":"24.42050000","longitude":"89.00060000"},{"id":5518,"name":"Netrakona","country_id":19,"country_code":"BD","iso2":"41","iso3166_2":"BD-41","latitude":"24.88090000","longitude":"90.72770000"},{"id":5519,"name":"Nilphamari","country_id":19,"country_code":"BD","iso2":"46","iso3166_2":"BD-46","latitude":"25.93180000","longitude":"88.85600000"},{"id":5520,"name":"Noakhali","country_id":19,"country_code":"BD","iso2":"47","iso3166_2":"BD-47","latitude":"22.86910000","longitude":"91.09790000"},{"id":5521,"name":"Pabna","country_id":19,"country_code":"BD","iso2":"49","iso3166_2":"BD-49","latitude":"24.00640000","longitude":"89.23360000"},{"id":5522,"name":"Panchagarh","country_id":19,"country_code":"BD","iso2":"52","iso3166_2":"BD-52","latitude":"26.33880000","longitude":"88.55390000"},{"id":5523,"name":"Patuakhali","country_id":19,"country_code":"BD","iso2":"51","iso3166_2":"BD-51","latitude":"22.35910000","longitude":"90.32890000"},{"id":5524,"name":"Pirojpur","country_id":19,"country_code":"BD","iso2":"50","iso3166_2":"BD-50","latitude":"22.57910000","longitude":"89.97590000"},{"id":5525,"name":"Rajbari","country_id":19,"country_code":"BD","iso2":"53","iso3166_2":"BD-53","latitude":"23.75740000","longitude":"89.64470000"},{"id":5526,"name":"Rajshahi","country_id":19,"country_code":"BD","iso2":"54","iso3166_2":"BD-54","latitude":"24.37440000","longitude":"88.60440000"},{"id":753,"name":"Rajshahi ","country_id":19,"country_code":"BD","iso2":"E","iso3166_2":"BD-E","latitude":"24.62854320","longitude":"89.03768620"},{"id":5527,"name":"Rangamati","country_id":19,"country_code":"BD","iso2":"56","iso3166_2":"BD-56","latitude":"22.65320000","longitude":"92.17530000"},{"id":750,"name":"Rangpur ","country_id":19,"country_code":"BD","iso2":"F","iso3166_2":"BD-F","latitude":"25.63761350","longitude":"89.08263810"},{"id":5528,"name":"Rangpur","country_id":19,"country_code":"BD","iso2":"55","iso3166_2":"BD-55","latitude":"25.74660000","longitude":"89.25080000"},{"id":5529,"name":"Satkhira","country_id":19,"country_code":"BD","iso2":"58","iso3166_2":"BD-58","latitude":"22.71590000","longitude":"89.07060000"},{"id":5530,"name":"Shariatpur","country_id":19,"country_code":"BD","iso2":"62","iso3166_2":"BD-62","latitude":"23.24230000","longitude":"90.43480000"},{"id":5531,"name":"Sherpur","country_id":19,"country_code":"BD","iso2":"57","iso3166_2":"BD-57","latitude":"25.01970000","longitude":"90.01510000"},{"id":5532,"name":"Sirajganj","country_id":19,"country_code":"BD","iso2":"59","iso3166_2":"BD-59","latitude":"24.45330000","longitude":"89.70060000"},{"id":5533,"name":"Sunamganj","country_id":19,"country_code":"BD","iso2":"61","iso3166_2":"BD-61","latitude":"25.06580000","longitude":"91.39500000"},{"id":765,"name":"Sylhet ","country_id":19,"country_code":"BD","iso2":"G","iso3166_2":"BD-G","latitude":"24.73588540","longitude":"91.68524760"},{"id":5534,"name":"Sylhet","country_id":19,"country_code":"BD","iso2":"60","iso3166_2":"BD-60","latitude":"24.89940000","longitude":"91.86980000"},{"id":5535,"name":"Tangail","country_id":19,"country_code":"BD","iso2":"63","iso3166_2":"BD-63","latitude":"24.24980000","longitude":"89.91680000"},{"id":5536,"name":"Thakurgaon","country_id":19,"country_code":"BD","iso2":"64","iso3166_2":"BD-64","latitude":"26.03220000","longitude":"88.46100000"},{"id":1228,"name":"Christ Church","country_id":20,"country_code":"BB","iso2":"01","iso3166_2":"BB-01","latitude":"13.08261800","longitude":"-59.53744510"},{"id":1229,"name":"Saint Andrew","country_id":20,"country_code":"BB","iso2":"02","iso3166_2":"BB-02","latitude":"13.24329040","longitude":"-59.57317000"},{"id":1226,"name":"Saint George","country_id":20,"country_code":"BB","iso2":"03","iso3166_2":"BB-03","latitude":"13.13840220","longitude":"-59.54437210"},{"id":1224,"name":"Saint James","country_id":20,"country_code":"BB","iso2":"04","iso3166_2":"BB-04","latitude":"13.18637930","longitude":"-59.62519200"},{"id":1227,"name":"Saint John","country_id":20,"country_code":"BB","iso2":"05","iso3166_2":"BB-05","latitude":"13.18994630","longitude":"-59.55921510"},{"id":1223,"name":"Saint Joseph","country_id":20,"country_code":"BB","iso2":"06","iso3166_2":"BB-06","latitude":"13.18994630","longitude":"-59.55921510"},{"id":1221,"name":"Saint Lucy","country_id":20,"country_code":"BB","iso2":"07","iso3166_2":"BB-07","latitude":"13.30240680","longitude":"-59.61294450"},{"id":1230,"name":"Saint Michael","country_id":20,"country_code":"BB","iso2":"08","iso3166_2":"BB-08","latitude":"13.11829850","longitude":"-59.60157830"},{"id":1222,"name":"Saint Peter","country_id":20,"country_code":"BB","iso2":"09","iso3166_2":"BB-09","latitude":"13.26197790","longitude":"-59.62074440"},{"id":1220,"name":"Saint Philip","country_id":20,"country_code":"BB","iso2":"10","iso3166_2":"BB-10","latitude":"13.12953900","longitude":"-59.46741020"},{"id":1225,"name":"Saint Thomas","country_id":20,"country_code":"BB","iso2":"11","iso3166_2":"BB-11","latitude":"13.17720200","longitude":"-59.58538330"},{"id":2959,"name":"Brest","country_id":21,"country_code":"BY","iso2":"BR","iso3166_2":"BY-BR","latitude":"52.09375100","longitude":"23.68518510"},{"id":2955,"name":"Gomel","country_id":21,"country_code":"BY","iso2":"HO","iso3166_2":"BY-HO","latitude":"52.42389360","longitude":"31.01316980"},{"id":2956,"name":"Grodno","country_id":21,"country_code":"BY","iso2":"HR","iso3166_2":"BY-HR","latitude":"53.68345990","longitude":"23.83426480"},{"id":2957,"name":"Minsk","country_id":21,"country_code":"BY","iso2":"MI","iso3166_2":"BY-MI","latitude":"53.90247160","longitude":"27.56182250"},{"id":2958,"name":"Minsk","country_id":21,"country_code":"BY","iso2":"HM","iso3166_2":"BY-HM","latitude":"53.90247160","longitude":"27.56182250"},{"id":2954,"name":"Mogilev","country_id":21,"country_code":"BY","iso2":"MA","iso3166_2":"BY-MA","latitude":"53.90902450","longitude":"30.34298380"},{"id":2960,"name":"Vitebsk","country_id":21,"country_code":"BY","iso2":"VI","iso3166_2":"BY-VI","latitude":"55.23819720","longitude":"28.77422030"},{"id":1381,"name":"Antwerp","country_id":22,"country_code":"BE","iso2":"VAN","iso3166_2":"BE-VAN","latitude":"51.21944750","longitude":"4.40246430"},{"id":1376,"name":"Brussels-Capital ","country_id":22,"country_code":"BE","iso2":"BRU","iso3166_2":"BE-BRU","latitude":"50.83879510","longitude":"4.37530410"},{"id":1377,"name":"East Flanders","country_id":22,"country_code":"BE","iso2":"VOV","iso3166_2":"BE-VOV","latitude":"51.03754230","longitude":"3.81178300"},{"id":1373,"name":"Flanders","country_id":22,"country_code":"BE","iso2":"VLG","iso3166_2":"BE-VLG","latitude":"51.09624620","longitude":"4.17862910"},{"id":1374,"name":"Flemish Brabant","country_id":22,"country_code":"BE","iso2":"VBR","iso3166_2":"BE-VBR","latitude":"50.86865160","longitude":"4.78862380"},{"id":1375,"name":"Hainaut","country_id":22,"country_code":"BE","iso2":"WHT","iso3166_2":"BE-WHT","latitude":"50.36192000","longitude":"4.12521700"},{"id":1384,"name":"Liège","country_id":22,"country_code":"BE","iso2":"WLG","iso3166_2":"BE-WLG","latitude":"50.64509440","longitude":"5.57361120"},{"id":1372,"name":"Limburg","country_id":22,"country_code":"BE","iso2":"VLI","iso3166_2":"BE-VLI","latitude":"50.99779370","longitude":"5.44535750"},{"id":1379,"name":"Luxembourg","country_id":22,"country_code":"BE","iso2":"WLX","iso3166_2":"BE-WLX","latitude":"49.96380050","longitude":"5.43980190"},{"id":1378,"name":"Namur","country_id":22,"country_code":"BE","iso2":"WNA","iso3166_2":"BE-WNA","latitude":"50.46738830","longitude":"4.87198540"},{"id":1380,"name":"Wallonia","country_id":22,"country_code":"BE","iso2":"WAL","iso3166_2":"BE-WAL","latitude":"50.15455230","longitude":"5.39921190"},{"id":1382,"name":"Walloon Brabant","country_id":22,"country_code":"BE","iso2":"WBR","iso3166_2":"BE-WBR","latitude":"50.66631060","longitude":"4.55000740"},{"id":1383,"name":"West Flanders","country_id":22,"country_code":"BE","iso2":"VWV","iso3166_2":"BE-VWV","latitude":"51.04047470","longitude":"2.99942130"},{"id":264,"name":"Belize","country_id":23,"country_code":"BZ","iso2":"BZ","iso3166_2":"BZ-BZ","latitude":"17.50027680","longitude":"-88.19887370"},{"id":269,"name":"Cayo","country_id":23,"country_code":"BZ","iso2":"CY","iso3166_2":"BZ-CY","latitude":"17.15827760","longitude":"-89.06816720"},{"id":266,"name":"Corozal","country_id":23,"country_code":"BZ","iso2":"CZL","iso3166_2":"BZ-CZL","latitude":"18.22763240","longitude":"-88.29212570"},{"id":268,"name":"Orange Walk","country_id":23,"country_code":"BZ","iso2":"OW","iso3166_2":"BZ-OW","latitude":"17.78318330","longitude":"-88.86202830"},{"id":265,"name":"Stann Creek","country_id":23,"country_code":"BZ","iso2":"SC","iso3166_2":"BZ-SC","latitude":"16.96665990","longitude":"-88.22473680"},{"id":267,"name":"Toledo","country_id":23,"country_code":"BZ","iso2":"TOL","iso3166_2":"BZ-TOL","latitude":"16.13455720","longitude":"-88.82190410"},{"id":3077,"name":"Alibori","country_id":24,"country_code":"BJ","iso2":"AL","iso3166_2":"BJ-AL","latitude":"11.46494820","longitude":"2.79387980"},{"id":3076,"name":"Atakora","country_id":24,"country_code":"BJ","iso2":"AK","iso3166_2":"BJ-AK","latitude":"10.71605150","longitude":"1.53315270"},{"id":3079,"name":"Atlantique","country_id":24,"country_code":"BJ","iso2":"AQ","iso3166_2":"BJ-AQ","latitude":"6.54082900","longitude":"2.22309500"},{"id":3078,"name":"Borgou","country_id":24,"country_code":"BJ","iso2":"BO","iso3166_2":"BJ-BO","latitude":"9.70974530","longitude":"2.74226480"},{"id":3070,"name":"Collines","country_id":24,"country_code":"BJ","iso2":"CO","iso3166_2":"BJ-CO","latitude":"8.10854790","longitude":"2.18531010"},{"id":3072,"name":"Donga","country_id":24,"country_code":"BJ","iso2":"DO","iso3166_2":"BJ-DO","latitude":"9.26798060","longitude":"1.71706840"},{"id":3071,"name":"Kouffo","country_id":24,"country_code":"BJ","iso2":"KO","iso3166_2":"BJ-KO","latitude":"7.13126620","longitude":"1.75673940"},{"id":3081,"name":"Littoral","country_id":24,"country_code":"BJ","iso2":"LI","iso3166_2":"BJ-LI","latitude":"6.36631950","longitude":"2.41706080"},{"id":3075,"name":"Mono","country_id":24,"country_code":"BJ","iso2":"MO","iso3166_2":"BJ-MO","latitude":"6.45762400","longitude":"1.86740800"},{"id":3080,"name":"Ouémé","country_id":24,"country_code":"BJ","iso2":"OU","iso3166_2":"BJ-OU","latitude":"6.60135310","longitude":"2.55056600"},{"id":3074,"name":"Plateau","country_id":24,"country_code":"BJ","iso2":"PL","iso3166_2":"BJ-PL","latitude":"7.10026020","longitude":"2.64091440"},{"id":3073,"name":"Zou","country_id":24,"country_code":"BJ","iso2":"ZO","iso3166_2":"BJ-ZO","latitude":"7.28343350","longitude":"2.12276040"},{"id":4860,"name":"Devonshire","country_id":25,"country_code":"BM","iso2":"DEV","iso3166_2":"BM-DEV","latitude":"32.30380620","longitude":"-64.76069540"},{"id":4861,"name":"Hamilton","country_id":25,"country_code":"BM","iso2":"HA","iso3166_2":"BM-HA","latitude":"32.33799060","longitude":"-64.73575560"},{"id":4863,"name":"Paget","country_id":25,"country_code":"BM","iso2":"PAG","iso3166_2":"BM-PAG","latitude":"32.28107400","longitude":"-64.77847870"},{"id":4864,"name":"Pembroke","country_id":25,"country_code":"BM","iso2":"PEM","iso3166_2":"BM-PEM","latitude":"32.30076720","longitude":"-64.79626300"},{"id":4866,"name":"Saint George's","country_id":25,"country_code":"BM","iso2":"SGE","iso3166_2":"BM-SGE","latitude":"32.37226890","longitude":"-64.69850200"},{"id":4867,"name":"Sandys","country_id":25,"country_code":"BM","iso2":"SAN","iso3166_2":"BM-SAN","latitude":"32.29995280","longitude":"-64.86741030"},{"id":4868,"name":"Smith's","country_id":25,"country_code":"BM","iso2":"SMI","iso3166_2":"BM-SMI","latitude":"32.31339660","longitude":"-64.73105880"},{"id":4869,"name":"Southampton","country_id":25,"country_code":"BM","iso2":"SOU","iso3166_2":"BM-SOU","latitude":"32.25179590","longitude":"-64.84969890"},{"id":4870,"name":"Warwick","country_id":25,"country_code":"BM","iso2":"WAR","iso3166_2":"BM-WAR","latitude":"32.26615340","longitude":"-64.80811980"},{"id":240,"name":"Bumthang ","country_id":26,"country_code":"BT","iso2":"33","iso3166_2":"BT-33","latitude":"27.70791320","longitude":"90.76974350"},{"id":239,"name":"Chukha ","country_id":26,"country_code":"BT","iso2":"12","iso3166_2":"BT-12","latitude":"27.05758030","longitude":"89.56381780"},{"id":238,"name":"Dagana ","country_id":26,"country_code":"BT","iso2":"22","iso3166_2":"BT-22","latitude":"27.07466530","longitude":"89.87866850"},{"id":229,"name":"Gasa ","country_id":26,"country_code":"BT","iso2":"GA","iso3166_2":"BT-GA","latitude":"27.91908750","longitude":"89.78753180"},{"id":232,"name":"Haa ","country_id":26,"country_code":"BT","iso2":"13","iso3166_2":"BT-13","latitude":"27.35966580","longitude":"89.23575560"},{"id":234,"name":"Lhuntse ","country_id":26,"country_code":"BT","iso2":"44","iso3166_2":"BT-44","latitude":"27.72874480","longitude":"91.13636240"},{"id":242,"name":"Mongar ","country_id":26,"country_code":"BT","iso2":"42","iso3166_2":"BT-42","latitude":"27.27630050","longitude":"91.23753600"},{"id":237,"name":"Paro ","country_id":26,"country_code":"BT","iso2":"11","iso3166_2":"BT-11","latitude":"27.42859490","longitude":"89.41665160"},{"id":244,"name":"Pemagatshel ","country_id":26,"country_code":"BT","iso2":"43","iso3166_2":"BT-43","latitude":"27.00304150","longitude":"91.36770540"},{"id":235,"name":"Punakha ","country_id":26,"country_code":"BT","iso2":"23","iso3166_2":"BT-23","latitude":"27.58428570","longitude":"89.85930940"},{"id":243,"name":"Samdrup Jongkhar ","country_id":26,"country_code":"BT","iso2":"45","iso3166_2":"BT-45","latitude":"26.80356820","longitude":"91.50392070"},{"id":246,"name":"Samtse ","country_id":26,"country_code":"BT","iso2":"14","iso3166_2":"BT-14","latitude":"27.03525320","longitude":"89.01473440"},{"id":247,"name":"Sarpang ","country_id":26,"country_code":"BT","iso2":"31","iso3166_2":"BT-31","latitude":"26.98638970","longitude":"90.38006730"},{"id":241,"name":"Thimphu ","country_id":26,"country_code":"BT","iso2":"15","iso3166_2":"BT-15","latitude":"27.47122160","longitude":"89.63390410"},{"id":5242,"name":"Trashi Yangtse\t","country_id":26,"country_code":"BT","iso2":"TY","iso3166_2":"BT-TY","latitude":"27.71758500","longitude":"91.19811020"},{"id":236,"name":"Trashigang ","country_id":26,"country_code":"BT","iso2":"41","iso3166_2":"BT-41","latitude":"27.28437780","longitude":"91.57425090"},{"id":245,"name":"Trongsa ","country_id":26,"country_code":"BT","iso2":"32","iso3166_2":"BT-32","latitude":"27.50022690","longitude":"90.50806340"},{"id":230,"name":"Tsirang ","country_id":26,"country_code":"BT","iso2":"21","iso3166_2":"BT-21","latitude":"27.00722320","longitude":"90.13262890"},{"id":231,"name":"Wangdue Phodrang ","country_id":26,"country_code":"BT","iso2":"24","iso3166_2":"BT-24","latitude":"27.54463400","longitude":"89.95558100"},{"id":233,"name":"Zhemgang ","country_id":26,"country_code":"BT","iso2":"34","iso3166_2":"BT-34","latitude":"27.08211480","longitude":"90.84089840"},{"id":3375,"name":"Beni","country_id":27,"country_code":"BO","iso2":"B","iso3166_2":"BO-B","latitude":"-14.00000000","longitude":"-65.00000000"},{"id":3382,"name":"Chuquisaca","country_id":27,"country_code":"BO","iso2":"H","iso3166_2":"BO-H","latitude":"-20.00000000","longitude":"-64.41666700"},{"id":3381,"name":"Cochabamba","country_id":27,"country_code":"BO","iso2":"C","iso3166_2":"BO-C","latitude":"-17.33301420","longitude":"-65.50109310"},{"id":3380,"name":"La Paz","country_id":27,"country_code":"BO","iso2":"L","iso3166_2":"BO-L","latitude":"-15.00000000","longitude":"-68.33333300"},{"id":3376,"name":"Oruro","country_id":27,"country_code":"BO","iso2":"O","iso3166_2":"BO-O","latitude":"-18.66666700","longitude":"-67.66666700"},{"id":3379,"name":"Pando","country_id":27,"country_code":"BO","iso2":"N","iso3166_2":"BO-N","latitude":"-11.18333300","longitude":"-67.18333300"},{"id":3383,"name":"Potosí","country_id":27,"country_code":"BO","iso2":"P","iso3166_2":"BO-P","latitude":"-20.66666700","longitude":"-66.66666700"},{"id":3377,"name":"Santa Cruz","country_id":27,"country_code":"BO","iso2":"S","iso3166_2":"BO-S","latitude":"-17.33333300","longitude":"-61.50000000"},{"id":3378,"name":"Tarija","country_id":27,"country_code":"BO","iso2":"T","iso3166_2":"BO-T","latitude":"-21.58333300","longitude":"-63.83333300"},{"id":5086,"name":"Bonaire","country_id":155,"country_code":"BQ","iso2":"BQ1","iso3166_2":"BQ-BQ1","latitude":"12.20189020","longitude":"-68.26238220"},{"id":5087,"name":"Saba","country_id":155,"country_code":"BQ","iso2":"BQ2","iso3166_2":"BQ-BQ2","latitude":"17.63546420","longitude":"-63.23267630"},{"id":5088,"name":"Sint Eustatius","country_id":155,"country_code":"BQ","iso2":"BQ3","iso3166_2":"BQ-BQ3","latitude":"17.48903060","longitude":"-62.97355500"},{"id":460,"name":"Brčko","country_id":28,"country_code":"BA","iso2":"BRC","iso3166_2":"BA-BRC","latitude":"44.87712220","longitude":"18.80950220"},{"id":467,"name":"Federation of Bosnia and Herzegovina","country_id":28,"country_code":"BA","iso2":"BIH","iso3166_2":"BA-BIH","latitude":"43.91674100","longitude":"17.54820720"},{"id":470,"name":"Republika Srpska","country_id":28,"country_code":"BA","iso2":"SRP","iso3166_2":"BA-SRP","latitude":"44.66961960","longitude":"17.36590250"},{"id":3067,"name":"Central","country_id":29,"country_code":"BW","iso2":"CE","iso3166_2":"BW-CE","latitude":"-21.47901870","longitude":"26.21541740"},{"id":5710,"name":"Chobe","country_id":29,"country_code":"BW","iso2":"CH","iso3166_2":"BW-CH","latitude":"-18.50000000","longitude":"25.00000000"},{"id":5711,"name":"Francistown","country_id":29,"country_code":"BW","iso2":"FR","iso3166_2":"BW-FR","latitude":"-21.17361111","longitude":"27.51250000"},{"id":5712,"name":"Gaborone","country_id":29,"country_code":"BW","iso2":"GA","iso3166_2":"BW-GA","latitude":"-24.65805556","longitude":"25.91222222"},{"id":3061,"name":"Ghanzi","country_id":29,"country_code":"BW","iso2":"GH","iso3166_2":"BW-GH","latitude":"-21.69681230","longitude":"21.64570620"},{"id":5713,"name":"Jwaneng","country_id":29,"country_code":"BW","iso2":"JW","iso3166_2":"BW-JW","latitude":"-24.60194444","longitude":"24.72833333"},{"id":3066,"name":"Kgalagadi","country_id":29,"country_code":"BW","iso2":"KG","iso3166_2":"BW-KG","latitude":"-24.84905760","longitude":"21.78833490"},{"id":3062,"name":"Kgatleng","country_id":29,"country_code":"BW","iso2":"KL","iso3166_2":"BW-KL","latitude":"-24.13408500","longitude":"26.41772460"},{"id":3069,"name":"Kweneng","country_id":29,"country_code":"BW","iso2":"KW","iso3166_2":"BW-KW","latitude":"-23.90281010","longitude":"24.92141220"},{"id":5714,"name":"Lobatse","country_id":29,"country_code":"BW","iso2":"LO","iso3166_2":"BW-LO","latitude":"-25.21666667","longitude":"25.66666667"},{"id":3068,"name":"North-East","country_id":29,"country_code":"BW","iso2":"NE","iso3166_2":"BW-NE","latitude":"-21.02448160","longitude":"27.51475040"},{"id":3065,"name":"North-West","country_id":29,"country_code":"BW","iso2":"NW","iso3166_2":"BW-NW","latitude":"-19.38935290","longitude":"23.26795100"},{"id":5715,"name":"Selibe Phikwe","country_id":29,"country_code":"BW","iso2":"SP","iso3166_2":"BW-SP","latitude":"-21.97583333","longitude":"27.84000000"},{"id":3064,"name":"South-East","country_id":29,"country_code":"BW","iso2":"SE","iso3166_2":"BW-SE","latitude":"-24.65638460","longitude":"26.05754290"},{"id":3063,"name":"Southern","country_id":29,"country_code":"BW","iso2":"SO","iso3166_2":"BW-SO","latitude":"-24.79986880","longitude":"24.58006920"},{"id":5716,"name":"Sowa Town","country_id":29,"country_code":"BW","iso2":"ST","iso3166_2":"BW-ST","latitude":"-20.56361111","longitude":"26.22444444"},{"id":2012,"name":"Acre","country_id":31,"country_code":"BR","iso2":"AC","iso3166_2":"BR-AC","latitude":"-9.04786790","longitude":"-70.52649760"},{"id":2007,"name":"Alagoas","country_id":31,"country_code":"BR","iso2":"AL","iso3166_2":"BR-AL","latitude":"-9.66116610","longitude":"-36.65024260"},{"id":1999,"name":"Amapá","country_id":31,"country_code":"BR","iso2":"AP","iso3166_2":"BR-AP","latitude":"1.35454420","longitude":"-51.91619770"},{"id":2004,"name":"Amazonas","country_id":31,"country_code":"BR","iso2":"AM","iso3166_2":"BR-AM","latitude":"-3.20017660","longitude":"-59.49892880"},{"id":2002,"name":"Bahia","country_id":31,"country_code":"BR","iso2":"BA","iso3166_2":"BR-BA","latitude":"-12.28525100","longitude":"-41.92947760"},{"id":2016,"name":"Ceará","country_id":31,"country_code":"BR","iso2":"CE","iso3166_2":"BR-CE","latitude":"-5.32647030","longitude":"-39.71560730"},{"id":2017,"name":"Distrito Federal","country_id":31,"country_code":"BR","iso2":"DF","iso3166_2":"BR-DF","latitude":"-15.77544620","longitude":"-47.79708910"},{"id":2018,"name":"Espírito Santo","country_id":31,"country_code":"BR","iso2":"ES","iso3166_2":"BR-ES","latitude":"-19.56876820","longitude":"-40.17219910"},{"id":2000,"name":"Goiás","country_id":31,"country_code":"BR","iso2":"GO","iso3166_2":"BR-GO","latitude":"-15.93236620","longitude":"-50.13929280"},{"id":2015,"name":"Maranhão","country_id":31,"country_code":"BR","iso2":"MA","iso3166_2":"BR-MA","latitude":"-5.20855030","longitude":"-45.39302620"},{"id":2011,"name":"Mato Grosso","country_id":31,"country_code":"BR","iso2":"MT","iso3166_2":"BR-MT","latitude":"-12.21150090","longitude":"-55.57165470"},{"id":2010,"name":"Mato Grosso do Sul","country_id":31,"country_code":"BR","iso2":"MS","iso3166_2":"BR-MS","latitude":"-19.58525640","longitude":"-54.47947310"},{"id":1998,"name":"Minas Gerais","country_id":31,"country_code":"BR","iso2":"MG","iso3166_2":"BR-MG","latitude":"-18.52648440","longitude":"-44.15886540"},{"id":2009,"name":"Pará","country_id":31,"country_code":"BR","iso2":"PA","iso3166_2":"BR-PA","latitude":"-4.74939330","longitude":"-52.89730060"},{"id":2005,"name":"Paraíba","country_id":31,"country_code":"BR","iso2":"PB","iso3166_2":"BR-PB","latitude":"-7.12193660","longitude":"-36.72468450"},{"id":2022,"name":"Paraná","country_id":31,"country_code":"BR","iso2":"PR","iso3166_2":"BR-PR","latitude":"-24.48421870","longitude":"-51.81488720"},{"id":2006,"name":"Pernambuco","country_id":31,"country_code":"BR","iso2":"PE","iso3166_2":"BR-PE","latitude":"-8.41163160","longitude":"-37.59196990"},{"id":2008,"name":"Piauí","country_id":31,"country_code":"BR","iso2":"PI","iso3166_2":"BR-PI","latitude":"-7.69927820","longitude":"-42.50437870"},{"id":1997,"name":"Rio de Janeiro","country_id":31,"country_code":"BR","iso2":"RJ","iso3166_2":"BR-RJ","latitude":"-22.91101370","longitude":"-43.20937270"},{"id":2019,"name":"Rio Grande do Norte","country_id":31,"country_code":"BR","iso2":"RN","iso3166_2":"BR-RN","latitude":"-5.67811750","longitude":"-36.47817760"},{"id":2001,"name":"Rio Grande do Sul","country_id":31,"country_code":"BR","iso2":"RS","iso3166_2":"BR-RS","latitude":"-29.84252840","longitude":"-53.76805770"},{"id":2013,"name":"Rondônia","country_id":31,"country_code":"BR","iso2":"RO","iso3166_2":"BR-RO","latitude":"-10.94314500","longitude":"-62.82778630"},{"id":4858,"name":"Roraima","country_id":31,"country_code":"BR","iso2":"RR","iso3166_2":"BR-RR","latitude":"2.13513800","longitude":"-61.36319220"},{"id":2014,"name":"Santa Catarina","country_id":31,"country_code":"BR","iso2":"SC","iso3166_2":"BR-SC","latitude":"-27.06283670","longitude":"-51.11496500"},{"id":2021,"name":"São Paulo","country_id":31,"country_code":"BR","iso2":"SP","iso3166_2":"BR-SP","latitude":"-23.55051990","longitude":"-46.63330940"},{"id":2003,"name":"Sergipe","country_id":31,"country_code":"BR","iso2":"SE","iso3166_2":"BR-SE","latitude":"-10.67439110","longitude":"-37.37735190"},{"id":2020,"name":"Tocantins","country_id":31,"country_code":"BR","iso2":"TO","iso3166_2":"BR-TO","latitude":"-10.88551290","longitude":"-48.37169120"},{"id":1217,"name":"Belait","country_id":33,"country_code":"BN","iso2":"BE","iso3166_2":"BN-BE","latitude":"4.43499380","longitude":"114.49465240"},{"id":1216,"name":"Brunei-Muara","country_id":33,"country_code":"BN","iso2":"BM","iso3166_2":"BN-BM","latitude":"4.97520980","longitude":"114.93676630"},{"id":1218,"name":"Temburong","country_id":33,"country_code":"BN","iso2":"TE","iso3166_2":"BN-TE","latitude":"4.62918400","longitude":"115.16344080"},{"id":1219,"name":"Tutong","country_id":33,"country_code":"BN","iso2":"TU","iso3166_2":"BN-TU","latitude":"4.68268100","longitude":"114.65627060"},{"id":4699,"name":"Blagoevgrad","country_id":34,"country_code":"BG","iso2":"01","iso3166_2":"BG-01","latitude":"42.01110770","longitude":"23.09064570"},{"id":4715,"name":"Burgas","country_id":34,"country_code":"BG","iso2":"02","iso3166_2":"BG-02","latitude":"42.49366160","longitude":"27.47212760"},{"id":4718,"name":"Dobrich","country_id":34,"country_code":"BG","iso2":"08","iso3166_2":"BG-08","latitude":"43.57278600","longitude":"27.82728020"},{"id":4693,"name":"Gabrovo","country_id":34,"country_code":"BG","iso2":"07","iso3166_2":"BG-07","latitude":"42.86847000","longitude":"25.31688900"},{"id":4704,"name":"Haskovo","country_id":34,"country_code":"BG","iso2":"26","iso3166_2":"BG-26","latitude":"41.93441780","longitude":"25.55546720"},{"id":4702,"name":"Kardzhali","country_id":34,"country_code":"BG","iso2":"09","iso3166_2":"BG-09","latitude":"41.64374600","longitude":"25.37221560"},{"id":4703,"name":"Kyustendil","country_id":34,"country_code":"BG","iso2":"10","iso3166_2":"BG-10","latitude":"42.28687990","longitude":"22.69396350"},{"id":4710,"name":"Lovech","country_id":34,"country_code":"BG","iso2":"11","iso3166_2":"BG-11","latitude":"43.13677980","longitude":"24.71393350"},{"id":4696,"name":"Montana","country_id":34,"country_code":"BG","iso2":"12","iso3166_2":"BG-12","latitude":"43.40851480","longitude":"23.22575890"},{"id":4712,"name":"Pazardzhik","country_id":34,"country_code":"BG","iso2":"13","iso3166_2":"BG-13","latitude":"42.19275670","longitude":"24.33362260"},{"id":4695,"name":"Pernik","country_id":34,"country_code":"BG","iso2":"14","iso3166_2":"BG-14","latitude":"42.60519900","longitude":"23.03779160"},{"id":4706,"name":"Pleven","country_id":34,"country_code":"BG","iso2":"15","iso3166_2":"BG-15","latitude":"43.40902200","longitude":"24.61801230"},{"id":4701,"name":"Plovdiv","country_id":34,"country_code":"BG","iso2":"16","iso3166_2":"BG-16","latitude":"42.13540790","longitude":"24.74529040"},{"id":4698,"name":"Razgrad","country_id":34,"country_code":"BG","iso2":"17","iso3166_2":"BG-17","latitude":"43.52717050","longitude":"26.52412280"},{"id":4713,"name":"Ruse","country_id":34,"country_code":"BG","iso2":"18","iso3166_2":"BG-18","latitude":"43.83559640","longitude":"25.96561440"},{"id":4882,"name":"Shumen","country_id":34,"country_code":"BG","iso2":"27","iso3166_2":"BG-27","latitude":"43.27123980","longitude":"26.93612860"},{"id":4708,"name":"Silistra","country_id":34,"country_code":"BG","iso2":"19","iso3166_2":"BG-19","latitude":"44.11471010","longitude":"27.26714540"},{"id":4700,"name":"Sliven","country_id":34,"country_code":"BG","iso2":"20","iso3166_2":"BG-20","latitude":"42.68167020","longitude":"26.32285690"},{"id":4694,"name":"Smolyan","country_id":34,"country_code":"BG","iso2":"21","iso3166_2":"BG-21","latitude":"41.57741480","longitude":"24.70108710"},{"id":4719,"name":"Sofia","country_id":34,"country_code":"BG","iso2":"23","iso3166_2":"BG-23","latitude":"42.64191000","longitude":"23.97356320"},{"id":4705,"name":"Sofia City","country_id":34,"country_code":"BG","iso2":"22","iso3166_2":"BG-22","latitude":"42.65431800","longitude":"23.33315720"},{"id":4707,"name":"Stara Zagora","country_id":34,"country_code":"BG","iso2":"24","iso3166_2":"BG-24","latitude":"42.42577090","longitude":"25.63448550"},{"id":4714,"name":"Targovishte","country_id":34,"country_code":"BG","iso2":"25","iso3166_2":"BG-25","latitude":"43.24623490","longitude":"26.56912510"},{"id":4717,"name":"Varna","country_id":34,"country_code":"BG","iso2":"03","iso3166_2":"BG-03","latitude":"43.20464770","longitude":"27.91054880"},{"id":4709,"name":"Veliko Tarnovo","country_id":34,"country_code":"BG","iso2":"04","iso3166_2":"BG-04","latitude":"43.08205840","longitude":"25.63213120"},{"id":4697,"name":"Vidin","country_id":34,"country_code":"BG","iso2":"05","iso3166_2":"BG-05","latitude":"43.98572420","longitude":"22.87721940"},{"id":4711,"name":"Vratsa","country_id":34,"country_code":"BG","iso2":"06","iso3166_2":"BG-06","latitude":"43.21018060","longitude":"23.55292100"},{"id":4716,"name":"Yambol","country_id":34,"country_code":"BG","iso2":"28","iso3166_2":"BG-28","latitude":"42.48414940","longitude":"26.50352960"},{"id":3160,"name":"Balé","country_id":35,"country_code":"BF","iso2":"BAL","iso3166_2":"BF-BAL","latitude":"11.65814500","longitude":"-3.05410220"},{"id":3155,"name":"Bam","country_id":35,"country_code":"BF","iso2":"BAM","iso3166_2":"BF-BAM","latitude":"13.46811500","longitude":"-1.59866370"},{"id":3120,"name":"Banwa","country_id":35,"country_code":"BF","iso2":"BAN","iso3166_2":"BF-BAN","latitude":"12.22655680","longitude":"-4.19133440"},{"id":3152,"name":"Bazèga","country_id":35,"country_code":"BF","iso2":"BAZ","iso3166_2":"BF-BAZ","latitude":"11.89222760","longitude":"-1.45937620"},{"id":3138,"name":"Boucle du Mouhoun","country_id":35,"country_code":"BF","iso2":"01","iso3166_2":"BF-01","latitude":"12.47778050","longitude":"-3.58795710"},{"id":3121,"name":"Bougouriba","country_id":35,"country_code":"BF","iso2":"BGR","iso3166_2":"BF-BGR","latitude":"10.88209330","longitude":"-3.43066310"},{"id":3131,"name":"Boulgou","country_id":35,"country_code":"BF","iso2":"BLG","iso3166_2":"BF-BLG","latitude":"11.46462500","longitude":"-0.40891010"},{"id":5343,"name":"Boulkiemde","country_id":35,"country_code":"BF","iso2":"BLK","iso3166_2":"BF-BLK","latitude":"12.29371200","longitude":"-2.10413120"},{"id":3153,"name":"Cascades","country_id":35,"country_code":"BF","iso2":"02","iso3166_2":"BF-02","latitude":"10.30718120","longitude":"-4.43518930"},{"id":3136,"name":"Centre","country_id":35,"country_code":"BF","iso2":"03","iso3166_2":"BF-03","latitude":"12.36732000","longitude":"-1.54308690"},{"id":3162,"name":"Centre-Est","country_id":35,"country_code":"BF","iso2":"04","iso3166_2":"BF-04","latitude":"11.73493300","longitude":"-0.29210560"},{"id":3127,"name":"Centre-Nord","country_id":35,"country_code":"BF","iso2":"05","iso3166_2":"BF-05","latitude":"13.23871000","longitude":"-1.03498320"},{"id":3115,"name":"Centre-Ouest","country_id":35,"country_code":"BF","iso2":"06","iso3166_2":"BF-06","latitude":"11.90679330","longitude":"-2.30448010"},{"id":3149,"name":"Centre-Sud","country_id":35,"country_code":"BF","iso2":"07","iso3166_2":"BF-07","latitude":"11.58336460","longitude":"-1.05563010"},{"id":3167,"name":"Comoé","country_id":35,"country_code":"BF","iso2":"COM","iso3166_2":"BF-COM","latitude":"10.24198970","longitude":"-4.42688750"},{"id":3158,"name":"Est","country_id":35,"country_code":"BF","iso2":"08","iso3166_2":"BF-08","latitude":"12.25274950","longitude":"0.87361060"},{"id":3148,"name":"Ganzourgou","country_id":35,"country_code":"BF","iso2":"GAN","iso3166_2":"BF-GAN","latitude":"12.28991540","longitude":"-0.80834290"},{"id":3122,"name":"Gnagna","country_id":35,"country_code":"BF","iso2":"GNA","iso3166_2":"BF-GNA","latitude":"12.91545740","longitude":"-0.06595620"},{"id":3143,"name":"Gourma","country_id":35,"country_code":"BF","iso2":"GOU","iso3166_2":"BF-GOU","latitude":"12.22782670","longitude":"0.54720780"},{"id":3165,"name":"Hauts-Bassins","country_id":35,"country_code":"BF","iso2":"09","iso3166_2":"BF-09","latitude":"11.38902750","longitude":"-4.04136500"},{"id":3129,"name":"Houet","country_id":35,"country_code":"BF","iso2":"HOU","iso3166_2":"BF-HOU","latitude":"11.38510560","longitude":"-4.32736430"},{"id":3135,"name":"Ioba","country_id":35,"country_code":"BF","iso2":"IOB","iso3166_2":"BF-IOB","latitude":"11.03431870","longitude":"-2.96277610"},{"id":3168,"name":"Kadiogo","country_id":35,"country_code":"BF","iso2":"KAD","iso3166_2":"BF-KAD","latitude":"12.36732000","longitude":"-1.54308690"},{"id":3112,"name":"Kénédougou","country_id":35,"country_code":"BF","iso2":"KEN","iso3166_2":"BF-KEN","latitude":"11.40399800","longitude":"-4.98510280"},{"id":3132,"name":"Komondjari","country_id":35,"country_code":"BF","iso2":"KMD","iso3166_2":"BF-KMD","latitude":"12.72691130","longitude":"0.70470830"},{"id":3157,"name":"Kompienga","country_id":35,"country_code":"BF","iso2":"KMP","iso3166_2":"BF-KMP","latitude":"11.44875920","longitude":"0.97703780"},{"id":3146,"name":"Kossi","country_id":35,"country_code":"BF","iso2":"KOS","iso3166_2":"BF-KOS","latitude":"12.95933460","longitude":"-3.84367970"},{"id":3133,"name":"Koulpélogo","country_id":35,"country_code":"BF","iso2":"KOP","iso3166_2":"BF-KOP","latitude":"11.41531370","longitude":"0.14989900"},{"id":3161,"name":"Kouritenga","country_id":35,"country_code":"BF","iso2":"KOT","iso3166_2":"BF-KOT","latitude":"12.18503500","longitude":"-0.24484800"},{"id":3147,"name":"Kourwéogo","country_id":35,"country_code":"BF","iso2":"KOW","iso3166_2":"BF-KOW","latitude":"12.60042220","longitude":"-1.75985610"},{"id":3159,"name":"Léraba","country_id":35,"country_code":"BF","iso2":"LER","iso3166_2":"BF-LER","latitude":"10.65200350","longitude":"-5.21168580"},{"id":3151,"name":"Loroum","country_id":35,"country_code":"BF","iso2":"LOR","iso3166_2":"BF-LOR","latitude":"13.94637670","longitude":"-2.10554000"},{"id":3123,"name":"Mouhoun","country_id":35,"country_code":"BF","iso2":"MOU","iso3166_2":"BF-MOU","latitude":"12.23674750","longitude":"-3.33875620"},{"id":3116,"name":"Nahouri","country_id":35,"country_code":"BF","iso2":"NAO","iso3166_2":"BF-NAO","latitude":"11.25451140","longitude":"-1.26998210"},{"id":3113,"name":"Namentenga","country_id":35,"country_code":"BF","iso2":"NAM","iso3166_2":"BF-NAM","latitude":"13.23672000","longitude":"-0.48193430"},{"id":3142,"name":"Nayala","country_id":35,"country_code":"BF","iso2":"NAY","iso3166_2":"BF-NAY","latitude":"12.66018660","longitude":"-2.98911530"},{"id":3164,"name":"Nord","country_id":35,"country_code":"BF","iso2":"10","iso3166_2":"BF-10","latitude":"13.45911000","longitude":"-2.24963670"},{"id":3156,"name":"Noumbiel","country_id":35,"country_code":"BF","iso2":"NOU","iso3166_2":"BF-NOU","latitude":"9.79674530","longitude":"-2.92655430"},{"id":3141,"name":"Oubritenga","country_id":35,"country_code":"BF","iso2":"OUB","iso3166_2":"BF-OUB","latitude":"12.59701000","longitude":"-1.25223100"},{"id":3144,"name":"Oudalan","country_id":35,"country_code":"BF","iso2":"OUD","iso3166_2":"BF-OUD","latitude":"14.62530630","longitude":"-0.33334710"},{"id":3117,"name":"Passoré","country_id":35,"country_code":"BF","iso2":"PAS","iso3166_2":"BF-PAS","latitude":"12.87770000","longitude":"-2.29449050"},{"id":3125,"name":"Plateau-Central","country_id":35,"country_code":"BF","iso2":"11","iso3166_2":"BF-11","latitude":"12.40414000","longitude":"-0.88641600"},{"id":3163,"name":"Poni","country_id":35,"country_code":"BF","iso2":"PON","iso3166_2":"BF-PON","latitude":"10.30859430","longitude":"-3.30168110"},{"id":3114,"name":"Sahel","country_id":35,"country_code":"BF","iso2":"12","iso3166_2":"BF-12","latitude":"14.02791650","longitude":"-0.77177760"},{"id":3154,"name":"Sanguié","country_id":35,"country_code":"BF","iso2":"SNG","iso3166_2":"BF-SNG","latitude":"12.21015610","longitude":"-2.64210590"},{"id":3126,"name":"Sanmatenga","country_id":35,"country_code":"BF","iso2":"SMT","iso3166_2":"BF-SMT","latitude":"13.24054480","longitude":"-0.97470230"},{"id":3139,"name":"Séno","country_id":35,"country_code":"BF","iso2":"SEN","iso3166_2":"BF-SEN","latitude":"13.99508000","longitude":"-0.09920760"},{"id":3119,"name":"Sissili","country_id":35,"country_code":"BF","iso2":"SIS","iso3166_2":"BF-SIS","latitude":"11.44840640","longitude":"-2.39120850"},{"id":3166,"name":"Soum","country_id":35,"country_code":"BF","iso2":"SOM","iso3166_2":"BF-SOM","latitude":"14.28614430","longitude":"-1.34523260"},{"id":3137,"name":"Sourou","country_id":35,"country_code":"BF","iso2":"SOR","iso3166_2":"BF-SOR","latitude":"13.23116750","longitude":"-2.96218100"},{"id":3140,"name":"Sud-Ouest","country_id":35,"country_code":"BF","iso2":"13","iso3166_2":"BF-13","latitude":"10.38692080","longitude":"-3.28318860"},{"id":3128,"name":"Tapoa","country_id":35,"country_code":"BF","iso2":"TAP","iso3166_2":"BF-TAP","latitude":"12.14506270","longitude":"1.76030250"},{"id":3134,"name":"Tuy","country_id":35,"country_code":"BF","iso2":"TUI","iso3166_2":"BF-TUI","latitude":"11.44956040","longitude":"-3.37876530"},{"id":3124,"name":"Yagha","country_id":35,"country_code":"BF","iso2":"YAG","iso3166_2":"BF-YAG","latitude":"13.42694450","longitude":"0.61614970"},{"id":3150,"name":"Yatenga","country_id":35,"country_code":"BF","iso2":"YAT","iso3166_2":"BF-YAT","latitude":"13.59429380","longitude":"-2.52495130"},{"id":3145,"name":"Ziro","country_id":35,"country_code":"BF","iso2":"ZIR","iso3166_2":"BF-ZIR","latitude":"11.67530500","longitude":"-1.91466260"},{"id":3130,"name":"Zondoma","country_id":35,"country_code":"BF","iso2":"ZON","iso3166_2":"BF-ZON","latitude":"13.19753960","longitude":"-2.30852760"},{"id":3118,"name":"Zoundwéogo","country_id":35,"country_code":"BF","iso2":"ZOU","iso3166_2":"BF-ZOU","latitude":"11.55258950","longitude":"-1.03089380"},{"id":3196,"name":"Bubanza","country_id":36,"country_code":"BI","iso2":"BB","iso3166_2":"BI-BB","latitude":"-3.11127870","longitude":"29.38283580"},{"id":3198,"name":"Bujumbura Mairie","country_id":36,"country_code":"BI","iso2":"BM","iso3166_2":"BI-BM","latitude":"-3.34939590","longitude":"29.36318430"},{"id":3200,"name":"Bujumbura Rural","country_id":36,"country_code":"BI","iso2":"BL","iso3166_2":"BI-BL","latitude":"-3.47598170","longitude":"29.45357020"},{"id":3202,"name":"Bururi","country_id":36,"country_code":"BI","iso2":"BR","iso3166_2":"BI-BR","latitude":"-3.85815920","longitude":"29.58437900"},{"id":3201,"name":"Cankuzo","country_id":36,"country_code":"BI","iso2":"CA","iso3166_2":"BI-CA","latitude":"-3.14508760","longitude":"30.58987000"},{"id":3190,"name":"Cibitoke","country_id":36,"country_code":"BI","iso2":"CI","iso3166_2":"BI-CI","latitude":"-2.84773410","longitude":"29.26166200"},{"id":3197,"name":"Gitega","country_id":36,"country_code":"BI","iso2":"GI","iso3166_2":"BI-GI","latitude":"-3.53823360","longitude":"29.91070100"},{"id":3194,"name":"Karuzi","country_id":36,"country_code":"BI","iso2":"KR","iso3166_2":"BI-KR","latitude":"-3.12553770","longitude":"30.09783470"},{"id":3192,"name":"Kayanza","country_id":36,"country_code":"BI","iso2":"KY","iso3166_2":"BI-KY","latitude":"-3.02148160","longitude":"29.64580340"},{"id":3195,"name":"Kirundo","country_id":36,"country_code":"BI","iso2":"KI","iso3166_2":"BI-KI","latitude":"-2.58538720","longitude":"30.09334490"},{"id":3188,"name":"Makamba","country_id":36,"country_code":"BI","iso2":"MA","iso3166_2":"BI-MA","latitude":"-4.19783150","longitude":"29.80739960"},{"id":3193,"name":"Muramvya","country_id":36,"country_code":"BI","iso2":"MU","iso3166_2":"BI-MU","latitude":"-3.27511810","longitude":"29.63078550"},{"id":3186,"name":"Muyinga","country_id":36,"country_code":"BI","iso2":"MY","iso3166_2":"BI-MY","latitude":"-2.73359850","longitude":"30.31714410"},{"id":3187,"name":"Mwaro","country_id":36,"country_code":"BI","iso2":"MW","iso3166_2":"BI-MW","latitude":"-3.46500430","longitude":"29.67085080"},{"id":3199,"name":"Ngozi","country_id":36,"country_code":"BI","iso2":"NG","iso3166_2":"BI-NG","latitude":"-2.87768950","longitude":"29.89949860"},{"id":3185,"name":"Rumonge","country_id":36,"country_code":"BI","iso2":"RM","iso3166_2":"BI-RM","latitude":"-3.97540490","longitude":"29.43880140"},{"id":3189,"name":"Rutana","country_id":36,"country_code":"BI","iso2":"RT","iso3166_2":"BI-RT","latitude":"-3.86187140","longitude":"30.06769790"},{"id":3191,"name":"Ruyigi","country_id":36,"country_code":"BI","iso2":"RY","iso3166_2":"BI-RY","latitude":"-3.47334710","longitude":"30.25012780"},{"id":3984,"name":"Banteay Meanchey","country_id":37,"country_code":"KH","iso2":"1","iso3166_2":"KH-1","latitude":"13.79891470","longitude":"102.88626660"},{"id":3976,"name":"Battambang","country_id":37,"country_code":"KH","iso2":"2","iso3166_2":"KH-2","latitude":"13.09985260","longitude":"103.19666590"},{"id":3991,"name":"Kampong Cham","country_id":37,"country_code":"KH","iso2":"3","iso3166_2":"KH-3","latitude":"12.11748570","longitude":"105.20800220"},{"id":3979,"name":"Kampong Chhnang","country_id":37,"country_code":"KH","iso2":"4","iso3166_2":"KH-4","latitude":"12.25360260","longitude":"104.66583890"},{"id":3988,"name":"Kampong Speu","country_id":37,"country_code":"KH","iso2":"5","iso3166_2":"KH-5","latitude":"11.57753680","longitude":"104.27140230"},{"id":5070,"name":"Kampong Thom","country_id":37,"country_code":"KH","iso2":"6","iso3166_2":"KH-6","latitude":"12.66879230","longitude":"104.88791970"},{"id":3981,"name":"Kampot","country_id":37,"country_code":"KH","iso2":"7","iso3166_2":"KH-7","latitude":"10.61169060","longitude":"104.18275420"},{"id":3983,"name":"Kandal","country_id":37,"country_code":"KH","iso2":"8","iso3166_2":"KH-8","latitude":"11.39626250","longitude":"105.02078690"},{"id":3978,"name":"Kep","country_id":37,"country_code":"KH","iso2":"23","iso3166_2":"KH-23","latitude":"10.48463910","longitude":"104.31440820"},{"id":3982,"name":"Koh Kong","country_id":37,"country_code":"KH","iso2":"9","iso3166_2":"KH-9","latitude":"11.68134170","longitude":"103.02580430"},{"id":3986,"name":"Kratie","country_id":37,"country_code":"KH","iso2":"10","iso3166_2":"KH-10","latitude":"12.67830170","longitude":"106.05817330"},{"id":3985,"name":"Mondulkiri","country_id":37,"country_code":"KH","iso2":"11","iso3166_2":"KH-11","latitude":"12.73960750","longitude":"107.00879870"},{"id":3987,"name":"Oddar Meanchey","country_id":37,"country_code":"KH","iso2":"22","iso3166_2":"KH-22","latitude":"14.15856310","longitude":"103.78279600"},{"id":3980,"name":"Pailin","country_id":37,"country_code":"KH","iso2":"24","iso3166_2":"KH-24","latitude":"12.89053280","longitude":"102.62946040"},{"id":3994,"name":"Phnom Penh","country_id":37,"country_code":"KH","iso2":"12","iso3166_2":"KH-12","latitude":"11.56827100","longitude":"104.92244260"},{"id":3973,"name":"Preah Vihear","country_id":37,"country_code":"KH","iso2":"13","iso3166_2":"KH-13","latitude":"13.74629820","longitude":"104.97403000"},{"id":3974,"name":"Prey Veng","country_id":37,"country_code":"KH","iso2":"14","iso3166_2":"KH-14","latitude":"11.36595970","longitude":"105.45572770"},{"id":3977,"name":"Pursat","country_id":37,"country_code":"KH","iso2":"15","iso3166_2":"KH-15","latitude":"12.46625920","longitude":"103.74268300"},{"id":3990,"name":"Ratanakiri","country_id":37,"country_code":"KH","iso2":"16","iso3166_2":"KH-16","latitude":"13.93123990","longitude":"107.03910880"},{"id":3992,"name":"Siem Reap","country_id":37,"country_code":"KH","iso2":"17","iso3166_2":"KH-17","latitude":"13.36175620","longitude":"103.85903210"},{"id":3989,"name":"Sihanoukville","country_id":37,"country_code":"KH","iso2":"18","iso3166_2":"KH-18","latitude":"10.73219890","longitude":"103.75958060"},{"id":3993,"name":"Stung Treng","country_id":37,"country_code":"KH","iso2":"19","iso3166_2":"KH-19","latitude":"13.52712070","longitude":"105.96867270"},{"id":3972,"name":"Svay Rieng","country_id":37,"country_code":"KH","iso2":"20","iso3166_2":"KH-20","latitude":"11.09161500","longitude":"105.80345770"},{"id":3975,"name":"Takeo","country_id":37,"country_code":"KH","iso2":"21","iso3166_2":"KH-21","latitude":"10.93585470","longitude":"104.77964130"},{"id":5537,"name":"Tboung Khmum","country_id":37,"country_code":"KH","iso2":"25","iso3166_2":"KH-25","latitude":"11.98333333","longitude":"105.45000000"},{"id":2663,"name":"Adamawa","country_id":38,"country_code":"CM","iso2":"AD","iso3166_2":"CM-AD","latitude":"6.84967080","longitude":"13.21632220"},{"id":2660,"name":"Centre","country_id":38,"country_code":"CM","iso2":"CE","iso3166_2":"CM-CE","latitude":"4.68626700","longitude":"11.94145120"},{"id":2661,"name":"East","country_id":38,"country_code":"CM","iso2":"ES","iso3166_2":"CM-ES","latitude":"3.98943930","longitude":"14.17837300"},{"id":2656,"name":"Far North","country_id":38,"country_code":"CM","iso2":"EN","iso3166_2":"CM-EN","latitude":"10.63771860","longitude":"14.27381560"},{"id":2662,"name":"Littoral","country_id":38,"country_code":"CM","iso2":"LT","iso3166_2":"CM-LT","latitude":"4.20303300","longitude":"10.05630570"},{"id":2665,"name":"North","country_id":38,"country_code":"CM","iso2":"NO","iso3166_2":"CM-NO","latitude":"8.77127940","longitude":"13.78036270"},{"id":2657,"name":"Northwest","country_id":38,"country_code":"CM","iso2":"NW","iso3166_2":"CM-NW","latitude":"6.37752550","longitude":"10.38641710"},{"id":2659,"name":"South","country_id":38,"country_code":"CM","iso2":"SU","iso3166_2":"CM-SU","latitude":"2.73123740","longitude":"11.62546220"},{"id":2658,"name":"Southwest","country_id":38,"country_code":"CM","iso2":"SW","iso3166_2":"CM-SW","latitude":"5.05776060","longitude":"9.22894070"},{"id":2664,"name":"West","country_id":38,"country_code":"CM","iso2":"OU","iso3166_2":"CM-OU","latitude":"5.53563820","longitude":"10.58288260"},{"id":872,"name":"Alberta","country_id":39,"country_code":"CA","iso2":"AB","iso3166_2":"CA-AB","latitude":"55.00125100","longitude":"-115.00213600"},{"id":875,"name":"British Columbia","country_id":39,"country_code":"CA","iso2":"BC","iso3166_2":"CA-BC","latitude":"55.00125100","longitude":"-125.00244100"},{"id":867,"name":"Manitoba","country_id":39,"country_code":"CA","iso2":"MB","iso3166_2":"CA-MB","latitude":"55.00125100","longitude":"-97.00103800"},